Restaurant Name,Locality,Longitude,Latitude,Cuisines,Average Cost for two,Has Table booking,Has Online delivery,Aggregate rating,Votes
Food Cloud,Aaya Nagar,0.0,0.0,Cuisine Varies,500,No,No,0.0,2
Burger.in,Adchini,77.19692286,28.53538174,Fast Food,350,No,Yes,3.2,46
Days of the Raj,Adchini,77.19747473,28.53549308,"North Indian, Seafood, Continental",1500,Yes,Yes,3.4,45
Dilli Ka Dhaba,Adchini,77.19803329999999,28.537547200000002,"South Indian, North Indian",500,No,No,2.6,11
Govardhan,Adchini,77.19692420000001,28.5355234,"South Indian, North Indian, Chinese",500,No,Yes,3.4,238
Mezbaan Grills,Adchini,77.1981225,28.5381335,Mughlai,400,No,No,3.1,8
Say Cheese,Adchini,77.19815936,28.53744768,Fast Food,400,No,Yes,2.7,64
Southy,Adchini,77.19795015,28.53747419,South Indian,450,No,Yes,2.6,113
Monosoz,Adchini,77.19804244,28.53839431,Pizza,300,No,Yes,3.7,66
Waves,Adchini,77.1988082,28.5386662,"North Indian, Chinese",1500,Yes,Yes,3.5,141
Delhi Darbar,Adchini,77.19696745,28.53576259,"Chinese, North Indian",500,No,No,2.2,77
Chateau,Adchini,77.19679244,28.53565508,"Mediterranean, Italian",1600,Yes,No,4.0,40
Nariyal Cafe,Adchini,77.199152,28.538438,"Continental, Seafood, Goan, Andhra, Kerala, Thai",1200,Yes,No,4.2,46
Rustom's Parsi Bhonu,Adchini,77.19815668,28.53789627,Parsi,1500,Yes,Yes,4.2,665
BarShala,"Aditya Mega Mall, Karkardooma",77.3006287,28.6557549,Finger Food,600,No,No,3.2,31
Chawla's_,"Aditya Mega Mall, Karkardooma",77.3011977,28.6560516,"North Indian, Mughlai",800,Yes,Yes,3.4,32
Domino's Pizza,"Aditya Mega Mall, Karkardooma",77.30163370000001,28.6564531,"Pizza, Fast Food",700,No,No,2.8,83
Sultanat,"Aditya Mega Mall, Karkardooma",77.3016026,28.656262400000003,"North Indian, Chinese, Continental",1000,Yes,Yes,3.7,288
Bella Italia,Aerocity,77.087897,28.554463000000002,"Fast Food, Italian, Pizza",550,No,No,3.2,33
Clever Fox Cafe,Aerocity,77.120642,28.55169,"North Indian, Continental, Chinese",900,Yes,No,3.2,26
365 Naturals,Aerocity,77.087897,28.554463000000002,"Continental, North Indian, Fast Food, Street Food, South Indian",600,No,No,0.0,2
Tpot,Aerocity,77.087897,28.554463000000002,Cafe,800,No,No,0.0,0
4 on 44 Restaurant & Bar,"Aggarwal City Mall, Pitampura",77.13462259999999,28.6901424,"North Indian, Chinese",1000,Yes,Yes,2.6,49
Rambhog,"Aggarwal City Mall, Pitampura",77.1345554,28.690014299999998,"Street Food, Mithai",200,No,No,3.3,13
Selfie Lounge Restro & Bar,"Aggarwal City Mall, Pitampura",77.13477239,28.68990208,"North Indian, Chinese",1500,Yes,Yes,3.2,64
BTW,"Aggarwal City Plaza, Rohini",77.11772690000001,28.7003322,"Street Food, South Indian, Mithai",400,No,No,3.4,167
Chilli Pepper,"Aggarwal City Plaza, Rohini",77.11763940000002,28.7006401,"North Indian, Chinese",900,Yes,Yes,3.3,99
Pizza Hut,"Aggarwal City Plaza, Rohini",77.11726290000001,28.7006935,"Italian, Pizza, Fast Food",1000,No,Yes,2.6,125
Puri Bakers,"Aggarwal City Plaza, Rohini",77.1175742,28.7004868,"Bakery, Fast Food",300,No,No,3.7,124
Jaiveer Naan & Chaap,"Aggarwal City Plaza, Rohini",77.1176368,28.7004261,"North Indian, Fast Food",500,No,Yes,2.2,79
Aggarwal's Sweets Paradise,Alaknanda,77.2542078,28.52497428,"Mithai, North Indian, South Indian, Street Food",400,No,No,2.9,8
Bikaner Sweets,Alaknanda,77.2542551,28.525320899999997,"Mithai, Street Food",200,No,No,3.3,20
Cafe Coffee Day,Alaknanda,77.25014627,28.52813297,Cafe,450,No,No,3.2,23
Cakeophony By Sonali,Alaknanda,0.0,0.0,Bakery,400,No,No,3.4,19
Chandra Sweets,Alaknanda,77.25405570000001,28.5255719,"Mithai, North Indian, South Indian, Street Food",400,No,No,3.0,7
Chhotu Mashhoor Kathi Roll,Alaknanda,77.25411225,28.52569245,Fast Food,150,No,No,2.7,11
Green Chick Chop,Alaknanda,77.24689879,28.52810941,"Raw Meats, North Indian, Fast Food",350,No,No,3.2,35
Lazeez Restaurant,Alaknanda,77.25456940000001,28.525664600000002,"Chinese, North Indian, Italian, Mughlai",600,No,Yes,3.0,11
Madhuvan Chinese Fast Food,Alaknanda,77.25324590000001,28.52560319,Chinese,300,No,Yes,2.5,32
Mr Wong,Alaknanda,77.24979300000001,28.525675,"Chinese, Thai",800,No,Yes,3.2,10
Mughlai Shahi Rasoi,Alaknanda,77.253851,28.5253274,"North Indian, Mughlai",600,No,No,3.2,23
Mumbai Central Street Food,Alaknanda,77.24780235,28.52774267,"Street Food, Fast Food, Beverages",400,No,No,3.1,7
Neha's Treat,Alaknanda,77.2540306,28.5257928,Chinese,450,No,No,2.9,42
New Bakers Shoppee,Alaknanda,77.25402072,28.52553898,"Bakery, Fast Food",200,No,No,3.2,21
Pant  Ice Cream Parlour,Alaknanda,77.25401971,28.52572397,"Desserts, Ice Cream",150,No,No,3.3,16
PM 2 AM Food Bank,Alaknanda,77.25118,28.52757,North Indian,500,No,Yes,2.5,37
Punjabi Chaap Corner,Alaknanda,77.2542022,28.533376,North Indian,250,No,No,2.9,4
Sartaj Food Corner,Alaknanda,77.2540755,28.5258419,"North Indian, South Indian, Chinese",500,No,Yes,2.8,7
The Sugar Therapy,Alaknanda,77.25247900000001,28.523784999999997,"Bakery, Desserts",450,No,No,3.4,22
Biryani Binge,Alaknanda,77.25034475,28.53141028,"North Indian, Biryani",600,No,Yes,3.9,97
City of Joy,Alaknanda,77.25312788,28.53267894,Bengali,800,No,No,3.9,452
Letz Roll,Alaknanda,77.24684659999998,28.5278902,"Ice Cream, Desserts",250,No,No,3.6,14
Nukkad,Alaknanda,77.25,28.53,"Chinese, Mughlai, North Indian",650,No,Yes,3.6,82
#InstaFreeze,Alaknanda,77.253694,28.52542,Ice Cream,300,No,No,0.0,2
Aahar Meat and Chicken Shop,Alaknanda,77.25,28.52,"Raw Meats, Fast Food",400,No,No,0.0,0
Food Cafe,Alaknanda,77.25012012,28.5299095,"South Indian, North Indian, Chinese",350,No,No,0.0,0
Lazeez Restaurant,Alaknanda,77.25394236,28.5335614,"Chinese, North Indian, Mughlai, Pizza",500,No,No,0.0,1
Lemon Chick,Alaknanda,77.2546954,28.525267,North Indian,500,No,Yes,0.0,2
Punjabi Chaap Corner,Alaknanda,0.0,0.0,"Fast Food, North Indian",400,No,No,0.0,0
Purani Dilli Foods,Alaknanda,77.2550814,28.525492800000002,Mughlai,600,No,No,0.0,1
Tandoori Kebab,Alaknanda,77.248174,28.526931,North Indian,400,No,No,0.0,0
Shree Rathnam,Alaknanda,77.2543449,28.525598499999997,"South Indian, North Indian, Chinese",800,No,Yes,2.4,31
Alaturka,"Ambience Mall, Vasant Kunj",77.1549849,28.541562,Turkish,600,No,Yes,2.5,100
Amici Gourmet Pizza,"Ambience Mall, Vasant Kunj",77.1549896,28.541479700000004,"Pizza, Italian",800,No,Yes,3.1,230
Burger King,"Ambience Mall, Vasant Kunj",77.1551985,28.5417053,"Burger, Fast Food",500,No,Yes,3.2,458
Kylin Express,"Ambience Mall, Vasant Kunj",77.155068,28.541168300000002,"Asian, Chinese",700,No,No,2.6,176
Big Fat Sandwich,"Ambience Mall, Vasant Kunj",77.15575699,28.54155381,American,800,Yes,Yes,3.5,232
Fashion Tv Cafe,"Ambience Mall, Vasant Kunj",77.15530144,28.5414127,"Continental, Chinese, North Indian",2200,Yes,No,3.6,27
Kylin Skybar,"Ambience Mall, Vasant Kunj",77.154938,28.541447499999997,"Chinese, Japanese, Thai, Malaysian, Vietnamese, Asian",2200,Yes,No,3.6,210
Lemon Drops,"Ambience Mall, Vasant Kunj",77.1552225,28.541052500000003,"North Indian, South Indian",500,No,No,3.9,44
Punjabi By Nature Express,"Ambience Mall, Vasant Kunj",77.15509899999999,28.5411702,"North Indian, Street Food, Mughlai",600,No,No,3.5,206
Red Mango,"Ambience Mall, Vasant Kunj",77.15538769999999,28.5409809,"Cafe, Desserts",700,No,Yes,3.7,185
Starbucks,"Ambience Mall, Vasant Kunj",77.15541266,28.54089671,Cafe,700,No,No,3.7,256
Peninsular Kitchen,"Ambience Mall, Vasant Kunj",77.15509490000001,28.5411409,"Seafood, South Indian, Andhra, Hyderabadi, Goan",1500,Yes,Yes,4.2,336
Mithapur,Anand Lok,77.2187517,28.555563399999997,"Chinese, Fast Food, North Indian, South Indian",450,No,No,3.4,280
Diggin,Anand Lok,77.2194983,28.555635499999998,"Italian, Continental, Cafe",1400,Yes,Yes,4.2,2131
Aggarwal Sweet India,Anand Vihar,77.3169197,28.6603476,"Fast Food, North Indian, Chinese, Desserts",200,No,No,2.8,13
Banzara's,Anand Vihar,77.3063202,28.6594964,"Chinese, Fast Food",400,No,No,3.1,38
Bobby Tikki Wala,Anand Vihar,77.3168615,28.6603647,Street Food,150,No,No,2.8,69
Chennai Junction,Anand Vihar,77.3065547,28.6596493,South Indian,500,No,No,3.3,11
Chicken Bite,Anand Vihar,77.3065301,28.6595397,Fast Food,200,No,No,3.1,6
Chocolate Dreams,Anand Vihar,77.3068973,28.6594042,"Bakery, Desserts",400,No,No,3.0,4
Dial n Dine,Anand Vihar,77.316909,28.6602285,"North Indian, Chinese",650,No,No,3.4,80
Fresh n Refresh,Anand Vihar,77.3066672,28.659608399999996,Fast Food,500,No,No,3.4,24
Garden Hut,Anand Vihar,77.305701,28.660127799999998,"Chinese, Fast Food",250,No,No,3.1,13
Giani,Anand Vihar,77.30649659999999,28.6596561,"Ice Cream, Desserts",400,No,Yes,3.3,12
Jugnu Gaming Zone and Cafe,Anand Vihar,77.31032330000001,28.6578549,"Cafe, North Indian, Fast Food",600,No,No,2.9,4
Keventer's South Indian & Chinese Food,Anand Vihar,77.3068127,28.6594592,"Chinese, South Indian",200,No,No,2.8,9
KTS,Anand Vihar,77.306795,28.65948,Fast Food,250,No,No,3.3,18
Mandarin,Anand Vihar,77.3061657,28.659802600000003,Chinese,600,No,No,2.8,14
Penguin Bakers & Shakers,Anand Vihar,77.30647049999999,28.659677399999996,Fast Food,400,No,No,2.8,9
Rollmates,Anand Vihar,77.30642579999999,28.659525800000004,"Fast Food, North Indian, Chinese",200,No,No,3.2,16
Tandoori Nights,Anand Vihar,77.31698990000001,28.660447499999997,"Mughlai, North Indian",650,No,No,3.0,5
Burger Dominion,Anand Vihar,77.30654390000001,28.6596325,Fast Food,500,No,Yes,3.6,251
Cafe Gainz,Anand Vihar,77.306742,28.659537699999998,Healthy Food,350,No,Yes,3.5,42
Chaskaa,Anand Vihar,77.3066776,28.6595993,"Chinese, North Indian, Italian",650,No,Yes,3.5,220
Fabulous Cake Bites,Anand Vihar,77.3057084,28.6601355,"Bakery, Desserts, Fast Food, Pizza, Burger, Continental",400,No,Yes,3.6,34
Hangout - A House Of Kathis,Anand Vihar,77.3065483,28.659478200000002,Street Food,250,No,No,3.7,103
Malais By Anands,Anand Vihar,77.31719670000001,28.6602308,"North Indian, Chinese, South Indian, Fast Food",300,No,No,3.7,46
Panchwati Rasoi,Anand Vihar,77.31715799999999,28.659876300000004,"North Indian, Chinese",250,No,No,3.8,62
Sprinkles Cup & Cake,Anand Vihar,77.3160226,28.663254300000002,"Bakery, Desserts",300,No,No,3.6,42
Target Ice Cream & Bakers,Anand Vihar,77.3128538,28.660001,"Desserts, Bakery, Pizza, Burger, Continental",350,No,Yes,3.6,58
The Sweeet Jar,Anand Vihar,77.3049468,28.6600636,"Cafe, Bakery",1000,No,Yes,3.9,106
Amar Bakery,Anand Vihar,77.3066854,28.659580699999996,"Bakery, Desserts, Fast Food, Mithai",500,No,No,0.0,0
Cafe Brewbug,Anand Vihar,77.3064428,28.6595978,"Fast Food, Beverages",350,No,No,0.0,1
Chilll House Kafe,Anand Vihar,77.3068152,28.659437100000005,Cafe,500,No,No,0.0,1
Cookie Shookie,Anand Vihar,77.3068421,28.6594206,Bakery,100,No,No,0.0,0
Fabulous Cake,Anand Vihar,77.31811579999999,28.6640178,Bakery,300,No,No,0.0,0
Jai Maa Shaarde Samose Wala,Anand Vihar,77.3171146,28.660359399999997,Street Food,100,No,No,0.0,0
Madaan Confectionery,Anand Vihar,77.3180203,28.663686600000005,Bakery,150,No,No,0.0,0
Magic Masala,Anand Vihar,77.3061815,28.659757300000003,"Chinese, South Indian, North Indian",500,No,No,0.0,1
Sikka Chinese Fast Food,Anand Vihar,77.3065417,28.6579247,"Chinese, Fast Food",300,No,No,0.0,0
Teedo's Cake Inn,Anand Vihar,77.30564809999998,28.660097600000004,"Cafe, Bakery",500,No,No,0.0,0
Thalaiva Cafe,Anand Vihar,77.3065199,28.659426,"South Indian, Chinese",400,No,No,0.0,2
The Cake Affairs,Anand Vihar,77.3170268,28.662202399999998,"Bakery, Desserts",500,No,No,0.0,0
Tulsi Ram Chinese Hut,Anand Vihar,77.3062409,28.6595326,Chinese,200,No,No,0.0,0
V. K. Pasta,Anand Vihar,77.3066115,28.6595859,"Italian, Fast Food",600,No,No,0.0,0
Xpert Bakers,Anand Vihar,77.3147803,28.6519961,Bakery,250,No,No,0.0,0
Juniper Bar - Andaz Delhi,"Andaz Delhi, Aerocity",77.12181085,28.55480667,"North Indian, European",1500,Yes,No,3.0,4
McDonald's,"Ansal Plaza Mall, Khel Gaon Marg",77.22435859999999,28.562554499999997,"Fast Food, Burger",500,No,Yes,3.4,48
Pizza Hut Delivery,"Ansal Plaza Mall, Khel Gaon Marg",77.22426259999999,28.5625495,"Italian, Pizza, Fast Food",800,No,Yes,3.2,51
The Arena,"Ansal Plaza Mall, Khel Gaon Marg",77.22457759999999,28.562449800000003,"Continental, Asian, North Indian",1600,Yes,No,3.4,19
Restaurant De Seoul,"Ansal Plaza Mall, Khel Gaon Marg",77.2245397,28.562518,"Japanese, Korean",2500,Yes,No,3.6,59
Taksim,"Ansal Plaza Mall, Khel Gaon Marg",77.2239998,28.562556199999996,Continental,1500,Yes,No,3.9,188
Jom Jom Malay,"Ansal Plaza Mall, Khel Gaon Marg",77.22444300000001,28.563155,"Malaysian, Indonesian",1800,No,No,4.4,77
Kofuku,"Ansal Plaza Mall, Khel Gaon Marg",77.22493695,28.56257437,"Japanese, Asian",1500,No,Yes,4.0,46
The Sky High,"Ansal Plaza Mall, Khel Gaon Marg",77.2243747,28.562282500000002,"Continental, North Indian, Mughlai, Italian",1400,No,No,4.1,387
Haldiram's,"ARSS Mall, Paschim Vihar",77.10154384,28.66894461,"North Indian, South Indian, Chinese, Mithai, Fast Food",500,No,No,3.1,117
Jux Pux - The Dreamer's Cafe,Asaf Ali Road,77.238382,28.640953999999997,"Beverages, Fast Food",350,No,No,3.1,7
Pizzaon,Asaf Ali Road,77.23196391,28.64244153,"Pizza, Fast Food",500,No,No,3.0,10
FFC Restaurant,Asaf Ali Road,77.231881,28.642415000000003,Fast Food,250,No,No,0.0,1
"34, Chowringhee Lane",Ashok Vihar Phase 1,77.1729156,28.693327399999998,Fast Food,350,No,Yes,2.8,7
Aapni Dhani,Ashok Vihar Phase 1,77.17314520000001,28.6927118,"North Indian, Street Food",200,No,No,2.8,23
Bengal Sweet Corner,Ashok Vihar Phase 1,77.1725562,28.692666,"North Indian, South Indian, Chinese, Fast Food, Mithai",500,No,No,2.8,102
Chicken Vicken,Ashok Vihar Phase 1,77.16644559999999,28.6849156,"North Indian, Chinese",600,No,No,3.4,19
Cup-a-licious,Ashok Vihar Phase 1,77.17633020000001,28.697684600000002,Bakery,200,No,No,3.2,15
Frontier,Ashok Vihar Phase 1,77.17147779999999,28.693189500000003,Bakery,200,No,No,3.0,10
Metro Fast Food,Ashok Vihar Phase 1,77.17273440000001,28.693833299999998,"Chinese, Fast Food",400,No,No,2.7,17
Nagpal's,Ashok Vihar Phase 1,77.16644559999999,28.6848261,Street Food,200,No,Yes,3.4,135
Nile Restro & Bar,Ashok Vihar Phase 1,77.1721967,28.6942435,"North Indian, Chinese",1000,Yes,No,2.7,35
Popular Chicken,Ashok Vihar Phase 1,77.1730055,28.687425399999995,"North Indian, Mughlai, Chinese",450,No,No,3.0,5
Sardar A Pure Meat Shop,Ashok Vihar Phase 1,77.1729156,28.6873272,"Raw Meats, Fast Food, North Indian",150,No,No,3.4,22
Shankar Fast Food,Ashok Vihar Phase 1,77.17165759999999,28.6929381,"Chinese, Fast Food",300,No,No,3.2,74
Singh's Zaika ,Ashok Vihar Phase 1,77.17676309999999,28.681281899999995,"North Indian, Chinese, Mughlai",500,No,No,3.0,4
The Mirch Masala,Ashok Vihar Phase 1,77.17315579999999,28.693196399999998,"North Indian, Chinese",700,No,No,3.0,7
The Mirch Masala,Ashok Vihar Phase 1,77.17363449999999,28.6873066,North Indian,650,No,No,3.2,22
Uncle Cake Shop,Ashok Vihar Phase 1,77.1855851,28.6738532,"Bakery, Desserts, Fast Food",300,No,No,3.1,9
Kays Bar-Be-Que,Ashok Vihar Phase 1,77.1731852,28.6933532,"North Indian, Mughlai",700,No,Yes,3.5,191
Master Bakers,Ashok Vihar Phase 1,77.1728257,28.692512800000003,"Bakery, Desserts, Chinese, Fast Food",350,No,Yes,3.7,199
The Master's Fast Food Centre,Ashok Vihar Phase 1,77.1734098,28.6930613,"Fast Food, Chinese, Bakery",400,No,No,3.5,60
6 Pack Momos,Ashok Vihar Phase 1,77.1724219,28.6940223,Chinese,300,No,No,0.0,1
Al Noor Foods,Ashok Vihar Phase 1,77.1731402,28.6870353,"North Indian, Mughlai",500,No,No,0.0,0
Avon Kitchen,Ashok Vihar Phase 1,77.1736822,28.687276899999997,"North Indian, Mughlai, Chinese",700,No,No,0.0,0
Bhasad Cafe,Ashok Vihar Phase 1,77.18082290000001,28.6720536,"Fast Food, Chinese",500,No,No,0.0,1
Bikaner Kesarvala,Ashok Vihar Phase 1,77.1685277,28.687879,Mithai,100,No,No,0.0,2
De Bone Chicken,Ashok Vihar Phase 1,77.1730688,28.6872543,"Raw Meats, Fast Food",400,No,No,0.0,0
Indian Fresh Meat Shop,Ashok Vihar Phase 1,77.1728262,28.687261,"Raw Meats, Fast Food",300,No,No,0.0,1
JD's Food Court,Ashok Vihar Phase 1,77.18082290000001,28.6720536,"North Indian, Chinese",550,No,No,0.0,3
Keventers,Ashok Vihar Phase 1,77.17228659999999,28.6942521,Beverages,400,No,No,0.0,3
Malhotra Bakery,Ashok Vihar Phase 1,77.18563,28.6738127,"Bakery, Chinese",300,No,No,0.0,1
Matthi Wala,Ashok Vihar Phase 1,77.18,28.67,"Mithai, Street Food",150,No,No,0.0,0
Nirula's Ice Cream,Ashok Vihar Phase 1,77.17232299999999,28.694039,"Ice Cream, Desserts",250,No,No,0.0,0
Punjabi Chaap Corner,Ashok Vihar Phase 1,77.1809128,28.6703604,"Fast Food, Chinese",400,No,Yes,0.0,1
Puran Dhaba,Ashok Vihar Phase 1,77.1724663,28.680298600000004,North Indian,200,No,No,0.0,0
Rama Desi Ghee Meat Wala,Ashok Vihar Phase 1,0.0,0.0,North Indian,650,No,No,0.0,0
VadaPav 'n' Frankie,Ashok Vihar Phase 1,77.1732301,28.6873126,Fast Food,100,No,No,0.0,0
Chhabra Sweets,Ashok Vihar Phase 1,77.1723764,28.693992100000003,Mithai,100,No,No,2.4,15
Kanwarji's,Ashok Vihar Phase 2,77.1787198,28.694532799999998,"Street Food, Chinese, North Indian, Mithai",300,No,Yes,2.9,29
Pizza Hut,Ashok Vihar Phase 2,77.1780375,28.6929229,"Italian, Pizza, Fast Food",1000,No,Yes,3.4,35
Sagar Ratna,Ashok Vihar Phase 2,77.1779476,28.693362,"South Indian, North Indian, Chinese",600,No,Yes,2.7,278
Smelling Salts,Ashok Vihar Phase 2,77.1715677,28.695168199999998,"North Indian, Chinese",1200,Yes,No,3.3,53
Wah Ji Wah,Ashok Vihar Phase 2,77.17953609999999,28.6960643,"North Indian, Chinese",350,No,Yes,2.6,142
Wheelyz,Ashok Vihar Phase 2,77.1782172,28.693566999999998,"North Indian, Chinese, Fast Food",550,No,Yes,2.5,41
Bell Pepperz,Ashok Vihar Phase 2,77.17952009999999,28.696512800000004,"Chinese, Italian, North Indian",1300,Yes,Yes,3.9,492
Bharat Sweets,Ashok Vihar Phase 2,77.1780375,28.6929229,"Mithai, Street Food",250,No,No,3.5,28
Invitation,Ashok Vihar Phase 2,77.1794454,28.6961234,"North Indian, Chinese",1300,Yes,No,3.6,457
Mystique Melange,Ashok Vihar Phase 2,77.1702198,28.6963822,"North Indian, Mughlai, Chinese, Continental",1800,Yes,No,3.9,173
Pandit Ji Paranthe Wale,Ashok Vihar Phase 2,77.1799506,28.696565500000002,North Indian,200,No,No,3.7,131
Raju Chat Palace,Ashok Vihar Phase 2,77.18550350000001,28.680203999999996,Street Food,200,No,No,3.9,123
Seasonings - The Spice Mysteries,Ashok Vihar Phase 2,77.1793165,28.695053100000003,"North Indian, Mughlai, Chinese, Italian",1200,Yes,Yes,3.9,274
SGF - Spice Grill Flame,Ashok Vihar Phase 2,77.1794162,28.6961906,"North Indian, Chinese",500,No,Yes,3.5,87
Apni Rasoi,Ashok Vihar Phase 3,77.177678,28.6923511,North Indian,300,No,No,3.0,78
Bablu Kabab Shop,Ashok Vihar Phase 3,77.1781273,28.6919464,"North Indian, Mughlai",500,No,No,3.1,10
Cake o' Cuisine,Ashok Vihar Phase 3,77.1778577,28.691831,Bakery,300,No,No,3.3,26
Domino's Pizza,Ashok Vihar Phase 3,77.17781679999999,28.692417100000004,"Pizza, Fast Food",700,No,No,3.2,101
Hunger Flames,Ashok Vihar Phase 3,77.1835542,28.687223200000002,"Pizza, Fast Food, Chinese",500,No,No,3.4,17
Puran Chand Ambala Wale Di Hatti,Ashok Vihar Phase 3,77.1780375,28.6924751,"North Indian, Mughlai",600,No,No,3.3,34
The Cake Gallery,Ashok Vihar Phase 3,77.16742370000001,28.6849542,Bakery,500,No,No,3.3,12
Bablu Chic Inn,Ashok Vihar Phase 3,77.1780492,28.692485100000003,"Mughlai, North Indian",750,No,No,3.6,34
Masala Basket,Ashok Vihar Phase 3,77.17788320000001,28.6921495,"North Indian, South Indian, Street Food",400,No,Yes,3.6,46
Udta Punjab,Ashok Vihar Phase 3,77.1780375,28.6924751,"North Indian, Mughlai",600,No,No,3.5,31
Munch Nation,Ashok Vihar Phase 3,77.17785772,28.69218909,"Fast Food, Italian, Chinese",350,No,Yes,4.0,96
Bengali Pastry Shop & Snack Bar,Barakhamba Road,77.2319679,28.6295216,"North Indian, South Indian, Chinese",550,No,No,3.2,70
Bhimsain's Bengali Sweet House,Barakhamba Road,77.231938,28.6297833,"North Indian, South Indian, Chinese, Street Food, Mithai",400,No,Yes,3.4,560
Cafe Coffee Day,Barakhamba Road,77.22546157,28.62981784,Cafe,450,No,No,2.9,4
Colonel's Kababz,Barakhamba Road,77.2322198,28.6291908,"North Indian, Fast Food",600,No,Yes,3.4,38
Faasos,Barakhamba Road,77.22946999999999,28.637044,"North Indian, Fast Food",600,No,Yes,2.8,11
Karachi Bakery,Barakhamba Road,77.2321395,28.6296552,"Bakery, Mithai",200,No,No,3.0,4
Nathu's Sweets,Barakhamba Road,77.23211620000001,28.6297135,"North Indian, South Indian, Street Food, Mithai",600,No,Yes,3.3,421
Sachdeva Confectioners,Barakhamba Road,77.23034,28.636706,"North Indian, Chinese",550,No,Yes,3.1,68
Bengali Sweet House,Barakhamba Road,77.2319464,28.6296407,"North Indian, Street Food, Chinese, South Indian, Mithai",400,No,No,3.6,85
Bijoli Grill,Barakhamba Road,77.22564027,28.62586289,"Bengali, North Indian, Chinese",800,Yes,No,3.7,343
Nathu's Pastry Shop,Barakhamba Road,77.2320661,28.6291468,"Bakery, Desserts, Fast Food",300,No,No,3.8,120
Balaji Dhaba,Barakhamba Road,77.22971020000001,28.630252600000002,North Indian,200,No,No,0.0,3
Bhagat Ji,Barakhamba Road,77.22556986,28.62948089,Fast Food,100,No,No,0.0,2
Hangout Kathi Rolls,Barakhamba Road,77.22981700000001,28.630585200000002,Fast Food,200,No,No,0.0,2
Makers & Bakers,Barakhamba Road,77.22439370000001,28.633756199999997,"Bakery, Desserts",350,No,No,0.0,0
Habibi Express,Barakhamba Road,77.232182,28.6291992,"Lebanese, Arabian, Moroccan",750,No,Yes,2.3,55
Cafe Coffee Day,"Basant Lok Market, Vasant Vihar",77.16410805,28.55860308,Cafe,450,No,No,3.2,49
China Town,"Basant Lok Market, Vasant Vihar",77.16399444,28.55882222,"Chinese, Fast Food",400,No,No,2.9,7
Domino's Pizza,"Basant Lok Market, Vasant Vihar",77.16454592,28.55759742,"Pizza, Fast Food",700,No,No,3.3,90
High Street Kitchen & Bar,"Basant Lok Market, Vasant Vihar",77.16416739,28.55803178,North Indian,1200,Yes,No,2.9,11
Pizza Hut,"Basant Lok Market, Vasant Vihar",77.16408022,28.55750937,"Italian, Pizza, Fast Food",1000,No,Yes,3.1,161
Sugar & Spice - Le Marche,"Basant Lok Market, Vasant Vihar",77.16383245,28.55735771,"Bakery, Fast Food",800,No,No,3.0,67
The Kathis,"Basant Lok Market, Vasant Vihar",77.16335401,28.55749052,"Fast Food, North Indian",300,No,Yes,2.8,23
The Kylin Experience,"Basant Lok Market, Vasant Vihar",77.16345278,28.55915278,"Japanese, Chinese, Malaysian, Thai, Vietnamese",1700,No,Yes,3.3,60
Arabian Nites,"Basant Lok Market, Vasant Vihar",77.16421165,28.55731442,Lebanese,450,No,Yes,3.5,239
Asia Kitchen,"Basant Lok Market, Vasant Vihar",77.16395449,28.55894144,"Chinese, Thai, North Indian",1300,Yes,Yes,3.7,137
Dunkin' Donuts,"Basant Lok Market, Vasant Vihar",77.16427334,28.55739275,"Burger, Desserts, Fast Food",600,No,Yes,3.7,212
Krips Restaurant,"Basant Lok Market, Vasant Vihar",77.16388777,28.55720016,"North Indian, Chinese",1000,Yes,Yes,3.5,193
McDonald's,"Basant Lok Market, Vasant Vihar",77.16365643,28.5574864,"Fast Food, Burger",500,No,Yes,3.5,202
Yo! China,"Basant Lok Market, Vasant Vihar",77.16364905,28.55722872,Chinese,1300,Yes,Yes,3.5,332
RPM,"Basant Lok Market, Vasant Vihar",77.16416772,28.55756561,Finger Food,1800,Yes,No,2.4,92
By The Way - Bellagio,"Bellagio, Ashok Vihar Phase 2",77.1799244,28.6963277,"Italian, Continental",1000,Yes,Yes,2.9,120
Red - Bellagio,"Bellagio, Ashok Vihar Phase 2",77.1800463,28.6962508,Chinese,1500,Yes,Yes,3.4,137
Soul Curry - Bellagio,"Bellagio, Ashok Vihar Phase 2",77.1799244,28.6963277,"North Indian, Mughlai",1100,Yes,Yes,3.6,158
Alpha 63,"Best Western Taurus Hotel, Mahipalpur",77.12716850000001,28.5488265,"North Indian, Chinese, Continental",1500,Yes,No,2.7,9
Bite-N-Sip,Bhikaji Cama Place,77.18846020000001,28.5677783,"North Indian, Street Food",300,No,Yes,2.6,38
Lotus Garden,Bhikaji Cama Place,77.1870054,28.5692067,"Chinese, Japanese, Thai",2000,Yes,No,3.2,59
Meethas Sweets,Bhikaji Cama Place,77.1882805,28.568209200000002,"Mithai, North Indian",200,No,No,2.8,4
Nirula's,Bhikaji Cama Place,77.18884371,28.56747782,"Fast Food, North Indian, Desserts, Ice Cream",1100,No,Yes,2.5,98
Punjabi Tadka,Bhikaji Cama Place,77.1883704,28.5680386,North Indian,250,No,No,2.8,11
Snack Bar,Bhikaji Cama Place,77.1872056,28.5682072,"North Indian, Mughlai",250,No,No,3.0,11
South Indian Food,Bhikaji Cama Place,77.1884696,28.567558000000002,South Indian,150,No,No,3.1,14
Domino's Pizza,Bhikaji Cama Place,77.18894932,28.56902165,"Pizza, Fast Food",700,No,No,2.4,71
Southy,Bhikaji Cama Place,77.18844105,28.56823664,South Indian,400,No,Yes,2.4,33
Coffee Shop - Centaur Hotel,"Centaur Hotel, Aerocity",77.115196,28.543090999999997,Cafe,1500,No,No,0.0,2
Al Kuresh,Chanakyapuri,77.1918744,28.584146399999998,"Chinese, North Indian",850,No,Yes,3.3,85
Angan Bakery & Cafe,Chanakyapuri,77.191515,28.5850979,"Bakery, Italian, Fast Food, Chinese, Continental",600,No,No,2.9,10
Bamboo Chopstix,Chanakyapuri,77.1916048,28.5842999,"Chinese, North Indian",700,No,No,2.7,8
Bawarchis,Chanakyapuri,77.1915599,28.584250800000003,"Chinese, North Indian",700,No,No,2.9,16
Bikanervala,Chanakyapuri,77.1912454,28.5851618,"North Indian, South Indian, Fast Food, Street Food, Chinese, Beverages, Desserts, Mithai",450,No,No,3.4,113
Cafe Coffee Day,Chanakyapuri,77.19097590000001,28.5834333,Cafe,450,No,No,3.0,4
Chanakya Bar-Be-Que,Chanakyapuri,77.1914283,28.584360800000002,"Chinese, North Indian",800,Yes,No,3.2,17
Chattisgarh Bhawan,Chanakyapuri,77.1863937,28.6043227,"North Indian, South Indian",450,No,No,2.7,33
Chimney,Chanakyapuri,77.1916048,28.5843895,Chinese,800,Yes,No,2.9,66
China Town Sizzlers,Chanakyapuri,77.1915599,28.584250800000003,Chinese,800,No,No,3.4,34
Chinese Bite,Chanakyapuri,77.1917436,28.584292699999995,"Chinese, North Indian, Seafood",700,No,No,2.8,31
Chinese Garden,Chanakyapuri,77.191558,28.5843202,Chinese,900,Yes,No,3.2,17
Costa Coffee,Chanakyapuri,77.1683666,28.595299199999996,Cafe,600,No,No,3.0,4
Food Point,Chanakyapuri,77.1867082,28.602426300000005,Fast Food,200,No,No,2.8,5
Ikko,Chanakyapuri,77.1860137,28.6021467,"North Indian, Mughlai",1650,Yes,No,2.9,10
Jammu And Kashmir House,Chanakyapuri,77.1969056,28.599861199999996,"Kashmiri, North Indian",500,No,No,2.9,4
Laguna,Chanakyapuri,77.1916947,28.584308500000002,"Chinese, North Indian",900,No,No,3.4,60
Momo Point,Chanakyapuri,77.1917845,28.584137899999995,"Chinese, North Indian",700,No,No,3.2,14
New Zaika,Chanakyapuri,77.1917845,28.584137899999995,"Chinese, North Indian",700,No,No,3.1,10
Organic Express,Chanakyapuri,77.1933486,28.5867665,"Cafe, Healthy Food, North Indian",700,No,No,3.0,7
Tamil Nadu House Canteen,Chanakyapuri,77.19088609999999,28.5830663,"South Indian, Chettinad, North Indian, Chinese",600,No,No,3.4,161
The Chocolate Avenue,Chanakyapuri,77.1863937,28.5795901,Bakery,300,No,No,3.4,28
Chimney Sizzlers,Chanakyapuri,77.1916048,28.5842999,Chinese,800,Yes,Yes,3.7,137
Gujarat Bhawan Restaurant,Chanakyapuri,77.1971751,28.5985428,"Gujarati, South Indian, North Indian",400,No,No,3.7,203
Itäó»s Sinful,Chanakyapuri,77.1735895,28.5974082,"Bakery, Desserts",450,No,No,3.5,20
Jakoi,Chanakyapuri,77.1876516,28.6055182,"Assamese, Chinese",600,No,No,3.5,218
Arunachal Bhawan,Chanakyapuri,77.19804690000001,28.5986962,North Eastern,350,No,No,0.0,0
Hotel New Tamil Nadu,Chanakyapuri,77.19088609999999,28.5830663,"South Indian, North Indian, Chinese",300,No,No,0.0,1
Milan Food,Chanakyapuri,77.1917845,28.584137899999995,"Chinese, North Indian",650,No,No,0.0,2
Playboy Club,Chanakyapuri,77.1974446,28.5957906,Finger Food,3000,No,No,0.0,3
Moti Mahal Delux,Chanakyapuri,77.1871125,28.601613699999998,"North Indian, Mughlai",1600,Yes,No,2.4,164
The Treat,Chanakyapuri,77.178936,28.592856899999997,"North Indian, Mughlai, Chinese",500,No,No,2.1,138
Break Fast Point,Chander Nagar,77.2820446,28.655501399999995,North Indian,200,No,No,3.3,21
Breakfast Corner,Chander Nagar,77.2822063,28.655449,North Indian,150,No,No,3.1,6
Domino's Pizza,Chander Nagar,77.27777579999999,28.651988800000005,"Pizza, Fast Food",700,No,No,3.0,10
Frontier,Chander Nagar,77.2816637,28.656024,Bakery,200,No,No,3.2,10
Prince Cafe,Chander Nagar,77.2821725,28.654838899999998,"South Indian, Chinese, Fast Food",300,No,No,2.9,6
Spicy Eleven,Chander Nagar,77.2779746,28.6536873,"North Indian, South Indian, Chinese",500,No,No,3.1,15
Vaishno Punjabi Dhaba,Chander Nagar,77.2822247,28.6512423,North Indian,400,No,No,3.0,12
Adarsh Bhojnalaya,Chandni Chowk,77.224214,28.656405699999997,North Indian,300,No,No,3.4,29
Al Haj Bakery,Chandni Chowk,77.2278068,28.654508899999996,Bakery,150,No,No,3.0,9
Anmol Chicken,Chandni Chowk,77.20948259999999,28.663598999999998,Mughlai,300,No,No,3.1,4
Babu Ram Paranthe Wale,Chandni Chowk,77.2304115,28.656011499999998,North Indian,150,No,No,3.2,225
Bhaijaan Kababs,Chandni Chowk,77.23351009999999,28.6494534,Mughlai,100,No,No,3.2,8
Bhikharam's,Chandni Chowk,77.22398333,28.65688889,"Mithai, Fast Food",300,No,No,3.0,5
Bikanervala,Chandni Chowk,77.2244176,28.6566711,"North Indian, South Indian, Fast Food, Street Food, Chinese, Desserts, Mithai",550,No,No,2.8,42
Brijwasi Bhoj,Chandni Chowk,77.2243841,28.656873200000003,North Indian,200,No,No,3.1,16
Brijwasi Restaurant,Chandni Chowk,77.2243823,28.656851,"North Indian, Fast Food, Chinese, South Indian",400,No,No,3.2,39
Comesum,Chandni Chowk,77.2280206,28.6606804,"North Indian, Street Food, Chinese, South Indian",350,No,No,2.5,49
Inderpuri Restaurant,Chandni Chowk,77.22319809999999,28.6578654,North Indian,250,No,No,3.0,20
Kamdhenu Family Corner,Chandni Chowk,77.22717809999999,28.656330199999996,"North Indian, South Indian",300,No,No,2.8,4
Khalsa Hindu Hotel,Chandni Chowk,77.2234955,28.658756,North Indian,450,No,No,2.9,5
Mahalaxmi Mishthan Bhandar,Chandni Chowk,77.2234057,28.658120299999997,"Mithai, Street Food",100,No,No,3.3,16
McDonald's,Chandni Chowk,77.23421395,28.65606667,"Fast Food, Burger",500,No,No,3.0,57
McDonald's,Chandni Chowk,77.22333167,28.656640000000003,"Fast Food, Burger",500,No,No,3.0,42
Natraj Cafe,Chandni Chowk,77.23050129999999,28.656199199999996,"North Indian, Fast Food, South Indian",300,No,No,3.4,21
Padam Chaat Corner,Chandni Chowk,77.23,28.66,Street Food,100,No,No,3.0,4
Pandit Ved Prakash Lemon Wale,Chandni Chowk,77.22681879999999,28.6565647,"Beverages, Street Food",50,No,No,3.2,11
Pt. Babu Ram Devi Dayal Paranthe Wale,Chandni Chowk,77.23071379999999,28.656049499999998,North Indian,150,No,No,3.0,53
Rabri Bhandar,Chandni Chowk,77.23050129999999,28.656109700000002,Mithai,150,No,No,3.2,7
Ram Parshad Makhan Lal,Chandni Chowk,77.2155012,28.6625615,Mithai,100,No,No,3.4,23
Rambhoj,Chandni Chowk,77.2324772,28.656298100000004,"North Indian, South Indian",150,No,No,2.9,4
Rehmatullah's Hotel,Chandni Chowk,77.23355500000001,28.6491441,Mughlai,100,No,No,3.0,5
Sharma Bhojnalay,Chandni Chowk,77.2306151,28.6559026,North Indian,100,No,No,3.0,9
Shree Balaji Chaat Bhandar,Chandni Chowk,77.2320281,28.656523999999997,Street Food,100,No,No,3.2,16
Shri Duli Chand Naresh Gupta,Chandni Chowk,77.22695350000001,28.6476635,Desserts,100,No,No,3.4,18
Shri Hari Sharnam,Chandni Chowk,77.222732,28.6577424,"North Indian, South Indian",400,No,No,3.1,14
Sindhi Chicken,Chandni Chowk,77.2316689,28.6573856,North Indian,400,No,No,2.9,7
Soni Bhojnalaya,Chandni Chowk,77.223481,28.657747999999998,North Indian,300,No,No,3.0,4
Super Restaurant,Chandni Chowk,77.2320281,28.6567032,North Indian,250,No,No,2.9,5
Tiwari Ji Confectioner,Chandni Chowk,77.2306809,28.6561268,Street Food,100,No,No,3.1,5
Wah Ji Wah,Chandni Chowk,77.23285859999999,28.6562478,"North Indian, Chinese",450,No,No,2.8,59
Zaika Mughlai Foods,Chandni Chowk,77.2233607,28.656637899999996,"Mughlai, Biryani",550,No,No,3.3,10
Al Yousuf,Chandni Chowk,77.2254715,28.655181899999995,Mughlai,200,No,No,3.7,30
Amritsari Lassi Wala,Chandni Chowk,77.2234007,28.656708399999996,Beverages,100,No,No,3.8,112
Annapurna Bhandar,Chandni Chowk,77.2323664,28.6563295,Mithai,100,No,No,3.8,59
Bishan Swaroop Chaat Bhandar,Chandni Chowk,77.23095040000001,28.6561525,Street Food,150,No,No,3.7,40
Gole Hatti,Chandni Chowk,77.2230342,28.6572505,North Indian,150,No,No,3.8,116
Haldiram's,Chandni Chowk,77.2316689,28.6563106,"North Indian, South Indian, Chinese, Street Food, Fast Food, Mithai, Desserts",600,No,No,3.9,444
Kanwarji's,Chandni Chowk,77.23077070000001,28.6562249,"Street Food, Chinese, North Indian, Mithai",300,No,No,3.9,163
Kedarnath Prem Chand Halwai,Chandni Chowk,77.22998299999999,28.6556971,"Mithai, Street Food",100,No,No,3.7,19
Keventers,Chandni Chowk,77.23148929999999,28.656203899999998,Beverages,400,No,No,3.7,63
Khan Omelette Corner,Chandni Chowk,77.2215109,28.6551982,Fast Food,150,No,No,3.6,43
Natraj Dahi Bhalle Wala,Chandni Chowk,77.23050129999999,28.656199199999996,Street Food,100,No,No,3.9,1487
Old Famous Jalebi Wala,Chandni Chowk,77.23355500000001,28.6561321,"Mithai, Street Food",100,No,No,3.9,752
Pt. Gaya Prasad Shiv Charan Paranthe Wale,Chandni Chowk,77.2304115,28.6561011,North Indian,150,No,No,3.6,437
Pt.Kanhaiyalal & Durga Prasad Dixit Paranthe Wale,Chandni Chowk,77.23046740000001,28.6560207,North Indian,150,No,No,3.6,297
Shiv Misthan Bhandar,Chandni Chowk,77.22430390000001,28.6568622,"Mithai, Street Food",100,No,No,3.8,76
Special Jalebi Wala,Chandni Chowk,77.2320562,28.6566115,Mithai,100,No,No,3.5,21
Tewari Bros Confectioners,Chandni Chowk,77.2266392,28.656637100000005,"Street Food, North Indian, South Indian, Mithai",200,No,No,3.5,51
Annapurna Chaat & Sweets,Chandni Chowk,77.2315132,28.6562432,Street Food,100,No,No,0.0,1
Delhi-6 The Chicken Planet,Chandni Chowk,0.0,0.0,"Biryani, Mughlai",300,No,No,0.0,0
Dessi Food,Chandni Chowk,77.23199609999999,28.6574304,Street Food,100,No,No,0.0,0
Foody Dragon,Chandni Chowk,77.23196120000001,28.657297200000002,Chinese,300,No,No,0.0,0
Grover Eating Point,Chandni Chowk,77.2352925,28.6570185,North Indian,200,No,No,0.0,1
Hotel 121 Shakahari,Chandni Chowk,77.22345059999999,28.657811,North Indian,300,No,No,0.0,2
Lala Chaap Corner,Chandni Chowk,77.233113,28.6526767,Fast Food,200,No,No,0.0,0
Meghraj & Sons,Chandni Chowk,77.2233158,28.656588800000005,"Street Food, Mithai",200,No,No,0.0,3
Old Kheer Shop,Chandni Chowk,77.225538,28.65045,Desserts,100,No,No,0.0,3
Punjabi Chicken,Chandni Chowk,77.2316689,28.6573856,North Indian,400,No,No,0.0,0
Ratan Singh,Chandni Chowk,77.2338244,28.6531118,Mithai,50,No,No,0.0,0
Shri Bhujia Bhandar,Chandni Chowk,0.0,0.0,"Street Food, Mithai",100,No,No,0.0,2
Chaina Ram Sindhi Confectioners,Chandni Chowk,77.2235803,28.656662199999996,"Mithai, Street Food",200,No,No,4.2,382
Giani's di Hatti,Chandni Chowk,77.22335749999999,28.6579744,"Ice Cream, Mithai, North Indian, Street Food",150,No,No,4.3,521
Jung Bahadur Kachori Wala,Chandni Chowk,77.2298726,28.6556914,Street Food,50,No,Yes,4.1,405
Lakhori - Haveli Dharampura,Chandni Chowk,77.2322078,28.653315999999997,"Mughlai, Street Food",3000,No,No,4.4,305
Milk n More,Chawri Bazar,77.23108509999999,28.650565999999998,"Desserts, Street Food",100,No,No,3.1,6
Kuremal Mohan Lal Kulfi Wale,Chawri Bazar,77.22704329999999,28.647761699999997,Ice Cream,200,No,No,4.5,545
Hira Chaat Corner,Chawri Bazar,77.22933370000001,28.6501751,Street Food,100,No,No,3.6,18
Kuremal Mahavir Prasad Kulfi Wale,Chawri Bazar,77.22681879999999,28.647605900000002,Ice Cream,300,No,No,3.9,36
Shakahari Restaurant,Chawri Bazar,77.22708829999999,28.649513,North Indian,300,No,No,3.6,185
Shri Gujrat Namkeen Bhandar,Chawri Bazar,77.2293345,28.650177600000003,"Street Food, Mithai",100,No,No,3.6,27
Standard Sweets,Chawri Bazar,77.2273577,28.649449100000005,"Mithai, North Indian",200,No,No,3.6,31
Sudarshan,Chawri Bazar,77.2302935,28.650406699999998,"Street Food, Beverages",150,No,No,3.7,54
Ustad Moinuddin Kebab,Chawri Bazar,77.2261003,28.6498667,Fast Food,100,No,No,3.7,21
Ashok Chaat Corner,Chawri Bazar,77.2268745,28.6493909,Street Food,100,No,No,4.1,118
Jain Coffee House,Chawri Bazar,77.2295582,28.650509999999997,"Fast Food, Beverages",150,No,No,4.1,169
Shyam Sweets,Chawri Bazar,77.2303113,28.6504756,"Mithai, Street Food",150,No,No,4.1,200
Spicy Food Court,Chhatarpur,77.16154855,28.49562447,"North Indian, Mughlai, Chinese",500,No,Yes,2.7,23
Aristocrat Sweet Shop,Chittaranjan Park,77.24861238,28.5400835,"Mithai, Bakery",300,No,No,3.1,7
Balluchi's - The Royal Cuisine,Chittaranjan Park,77.25185479999999,28.5399184,"North Indian, Mughlai, Chinese",800,Yes,No,3.0,4
Bunty Dhaba,Chittaranjan Park,77.25204963,28.53972535,"North Indian, Chinese",500,No,No,3.2,26
Gopal's Restaurant & Caterer's,Chittaranjan Park,77.24894397,28.54027996,"North Indian, Fast Food",300,No,No,2.7,22
Horn Please,Chittaranjan Park,77.2564223,28.537497899999998,"North Indian, Mughlai, Chinese",1000,Yes,Yes,3.0,70
Khatey Raho,Chittaranjan Park,77.2488511,28.5401398,"North Indian, Mughlai, Fast Food, South Indian",250,No,No,3.3,26
Kolkata Biryani House,Chittaranjan Park,77.24887993,28.54032355,"North Indian, Mughlai, Biryani",500,No,Yes,3.4,404
Kolkata Hot Kathi Roll,Chittaranjan Park,77.2485628,28.5401027,Fast Food,150,No,No,3.2,35
Madly Bangalee,Chittaranjan Park,77.2533122,28.5363941,"Mughlai, North Indian, Bengali, Continental",400,No,No,2.7,135
Oh! China,Chittaranjan Park,77.24785432,28.54140536,"Chinese, Thai",600,No,Yes,2.9,16
Punjabi Zaika,Chittaranjan Park,77.2534878,28.5364501,"Chinese, Mughlai, North Indian",500,No,Yes,2.9,39
Rabi Snacks Corner,Chittaranjan Park,77.24898689,28.5401377,Fast Food,300,No,No,3.4,18
Republic of Chicken,Chittaranjan Park,77.2534614,28.536492499999998,"Raw Meats, Fast Food",400,No,No,2.7,29
Roll n Roast,Chittaranjan Park,77.24858187,28.54001105,"North Indian, Chinese",250,No,No,3.3,27
Roller's High,Chittaranjan Park,0.0,0.0,"North Indian, Mughlai",500,No,No,3.2,13
Royal Chick 'N',Chittaranjan Park,77.2481801,28.541422700000002,"Mughlai, North Indian, Chinese",300,No,Yes,3.3,18
Royal Kolkata Biryani,Chittaranjan Park,77.2487302,28.5404268,"North Indian, Chinese, Biryani",500,No,No,2.7,14
Sameer's Restaurant,Chittaranjan Park,77.2533324,28.53629071,"North Indian, Mughlai, Chinese",600,No,Yes,2.5,59
Sanjha Chulha,Chittaranjan Park,77.25324858,28.53638025,"North Indian, Mughlai",550,No,No,2.7,70
Shepherd's,Chittaranjan Park,0.0,0.0,Fast Food,250,No,No,3.1,9
Soya King,Chittaranjan Park,77.2532497,28.5364506,North Indian,350,No,Yes,2.6,71
Tasty Tonight,Chittaranjan Park,0.0,0.0,"North Indian, Mughlai, Chinese",1000,No,No,3.1,5
The Mustard,Chittaranjan Park,77.248798,28.540204,Bengali,500,No,Yes,2.9,7
Tibb's Frankie,Chittaranjan Park,77.25343640000001,28.536391499999997,Fast Food,250,No,No,3.2,16
Wazwaan Restaurant,Chittaranjan Park,77.24177259999999,28.542694399999995,"North Indian, Kashmiri",1200,Yes,No,3.2,14
Yummi Kolkataa,Chittaranjan Park,77.248847,28.539921500000002,Mithai,150,No,No,3.2,17
Annapurna Sweet House,Chittaranjan Park,77.25338604,28.53622797,"Mithai, Street Food",150,No,No,3.7,55
Ashirbad,Chittaranjan Park,77.24314670000001,28.540850399999997,Fast Food,100,No,No,3.6,46
Chocolatiers - The Chocolate Boutique,Chittaranjan Park,77.24845400000001,28.5371718,Desserts,100,No,Yes,3.8,112
Dadu Cutlet Shop,Chittaranjan Park,77.25329351,28.53622856,Fast Food,100,No,No,3.7,99
Dogs & Wiches,Chittaranjan Park,77.25306259999999,28.53681321,"Continental, American, Fast Food",600,No,Yes,3.9,109
Maa Tara,Chittaranjan Park,77.2532976,28.536230600000003,"Bengali, North Indian",500,No,Yes,3.6,458
My Spice Kitchen,Chittaranjan Park,77.2487359,28.540398200000002,"North Indian, Mughlai, Biryani, Bengali",650,No,Yes,3.5,443
The Singing Tree,Chittaranjan Park,77.2488222,28.5403609,Beverages,100,No,No,3.7,33
Baba Chicken Ludhiana Wale,Chittaranjan Park,77.24996019,28.54047929,North Indian,400,No,No,0.0,0
Bengal Snacks,Chittaranjan Park,77.24868078,28.54036184,Fast Food,300,No,No,0.0,2
Brownies & More,Chittaranjan Park,77.24850550000001,28.5371328,"Bakery, Fast Food",100,No,No,0.0,2
Cafe Coffee Day,Chittaranjan Park,77.2530302,28.5393728,Cafe,450,No,No,0.0,1
Craving Cure,Chittaranjan Park,77.2533385,28.5366561,Chinese,300,No,No,0.0,2
Cuisine,Chittaranjan Park,77.24177259999999,28.542694399999995,"North Indian, Mughlai, Chinese",1500,Yes,No,0.0,1
Food Nation,Chittaranjan Park,0.0,0.0,"North Indian, Chinese",400,No,No,0.0,0
Kamala Fast Food & Chinese,Chittaranjan Park,77.25298069,28.5359835,"Fast Food, Chinese",300,No,No,0.0,2
Lokenath Sweets,Chittaranjan Park,77.2484567,28.5371718,Mithai,150,No,No,0.0,2
Me and My Cake,Chittaranjan Park,0.0,0.0,"Bakery, Desserts",500,No,No,0.0,0
Chulha Punjabi Da,Chittaranjan Park,77.25327071,28.53634285,"North Indian, Chinese, Fast Food",600,No,Yes,2.4,41
Viva Hyderabad,Chittaranjan Park,77.25292940000001,28.53692899,"Biryani, North Indian",600,No,Yes,2.3,38
Metro Grill,"City Centre Mall, Rohini",77.11422320000001,28.7168739,"North Indian, Mughlai, Chinese",1200,Yes,No,3.4,134
Cafe Cruise,"City Square Mall, Rajouri Garden",77.1232509,28.6501775,"Continental, North Indian, Chinese",1300,Yes,Yes,2.8,153
Etal The Lounge Bar,"City Square Mall, Rajouri Garden",77.123654,28.650218100000004,"North Indian, Italian, Fast Food",2000,Yes,No,3.2,455
"Game of Legends - Sports Bar, Grill, & Lounge","City Square Mall, Rajouri Garden",77.1233229,28.650365999999998,"North Indian, Chinese, Continental, Italian",1450,Yes,No,3.5,609
Al-raaya,Civil Lines,77.220848,28.671114000000003,"Mughlai, North Indian",600,No,Yes,3.1,6
Authentique Bites,Civil Lines,77.2253817,28.6764039,"Bakery, Desserts",300,No,No,3.2,17
Embassy,Civil Lines,77.22520209999999,28.6766555,"Chinese, North Indian, Mughlai",1200,Yes,Yes,3.0,126
Narang's Bake 'n' Cake,Civil Lines,77.222238,28.7027947,"Bakery, Desserts, Fast Food",400,No,No,3.0,4
New Darvesh,Civil Lines,77.2203223,28.697636100000004,"Chinese, South Indian",150,No,No,3.0,14
1UP,Civil Lines,77.2252161,28.676290299999998,"Cafe, Italian, Continental",1200,Yes,No,3.5,282
Gujarati Samaj Santushti,Civil Lines,77.2241691,28.6722125,Gujarati,300,No,No,3.6,95
Hind Bakery & Chinese Fast Food,Civil Lines,77.22224770000001,28.702812400000003,Fast Food,150,No,No,0.0,0
Hot Pot,Civil Lines,77.2213398,28.7008282,Chinese,150,No,No,0.0,0
Punjabi Flavour,Civil Lines,77.2212499,28.691952899999997,North Indian,100,No,No,0.0,0
Saras Fast Food Feast,Civil Lines,77.2224176,28.6726275,"North Indian, South Indian",300,No,No,0.0,0
Shama Chicken Corner,Civil Lines,77.2211471,28.691787800000004,"Biryani, Mughlai",300,No,No,0.0,0
The Night Owl,Civil Lines,77.2255613,28.6765107,Chinese,450,No,No,0.0,1
Wimpy Sweets And Confectioners,Civil Lines,77.2204415,28.697518100000003,"Bakery, Mithai",150,No,No,0.0,1
Boa Village,Civil Lines,77.22529190000002,28.676753700000003,"Chinese, Japanese, Korean, Asian",1500,Yes,No,4.0,225
Anand Ji Restaurant,"Community Centre, New Friends Colony",77.26811942,28.56171513,"Chinese, North Indian, Street Food",400,No,No,3.1,28
Baskin Robbins,"Community Centre, New Friends Colony",77.26835240000001,28.5620725,Ice Cream,300,No,Yes,3.3,38
Bhoj Restaurant,"Community Centre, New Friends Colony",77.26825587,28.56150782,"North Indian, Mughlai",600,No,No,2.8,54
Brijwasi Restaurant,"Community Centre, New Friends Colony",77.268392,28.56159321,"North Indian, Chinese",400,No,No,2.8,32
Cafe Coffee Day - The Lounge,"Community Centre, New Friends Colony",77.26903370000001,28.562628000000004,Cafe,750,No,No,3.2,42
Cafe Coffee Day,"Community Centre, New Friends Colony",77.26926506,28.562451899999996,Cafe,450,No,No,2.9,10
Chaat Tadka,"Community Centre, New Friends Colony",77.26820022,28.56128843,"North Indian, Street Food, Mithai",300,No,No,2.8,27
Chawla's Unique Chicken Corner,"Community Centre, New Friends Colony",77.26839837,28.56136028,"North Indian, Mughlai",600,No,Yes,3.2,35
Dawat Khana,"Community Centre, New Friends Colony",77.26880129999999,28.562384,"North Indian, Mughlai, Chinese",1600,Yes,Yes,2.5,82
Eat n Joy,"Community Centre, New Friends Colony",77.26848709999999,28.561412899999997,"North Indian, Mughlai",500,No,No,3.2,24
Khan Chicken Biryani,"Community Centre, New Friends Colony",77.26784986,28.56181849,North Indian,500,No,No,2.9,14
Kolkata Roll,"Community Centre, New Friends Colony",77.2685365,28.56132406,Fast Food,200,No,No,2.8,16
R. Ahmad Food,"Community Centre, New Friends Colony",77.26916899999999,28.562686,North Indian,450,No,No,3.0,11
Sab Ke Khatir,"Community Centre, New Friends Colony",77.268562,28.560994,"North Indian, Mughlai",600,No,No,3.1,14
Bon Bon Pastry Shop,"Community Centre, New Friends Colony",77.26831857,28.56217362,"Bakery, Desserts, Fast Food",150,No,No,3.5,91
Moksha,"Community Centre, New Friends Colony",77.26906691,28.56231173,North Indian,1400,Yes,Yes,3.7,110
Pebble Street,"Community Centre, New Friends Colony",77.26893816,28.56253759,"Italian, Tex-Mex, Continental, North Indian",2400,Yes,Yes,3.9,886
Kebab Gallery,"Community Centre, New Friends Colony",77.26817206,28.56203051,"North Indian, Lucknowi",400,No,No,0.0,3
Amber,Connaught Place,77.2208907,28.6301966,"North Indian, Chinese, Mughlai",1800,Yes,Yes,2.6,152
Attitude Kitchen & Bar,Connaught Place,77.22035229,28.63004355,"North Indian, Continental, Italian",1300,Yes,No,2.9,140
Cafe Coffee Day,Connaught Place,77.2198128,28.6329609,Cafe,450,No,Yes,3.4,277
Castle 9,Connaught Place,77.2194984,28.6348572,"Finger Food, Continental, North Indian, Chinese",1350,Yes,No,3.1,1099
Costa Coffee,Connaught Place,77.23219190000002,28.62925605,Cafe,600,No,No,3.4,76
Delhi Darbar Dhaba,Connaught Place,77.2298312,28.6305968,"North Indian, Chinese",400,No,Yes,3.2,89
Garam Dharam,Connaught Place,77.22268709999999,28.6317119,North Indian,1300,No,Yes,3.4,1523
Gola Sizzlers,Connaught Place,77.2198577,28.6352499,"Chinese, North Indian, Mughlai, Continental",1600,No,Yes,3.0,671
Indian Coffee House,Connaught Place,77.2160401,28.6305402,Fast Food,200,No,No,3.3,1300
My Bar Lounge & Restaurant,Connaught Place,77.21657909999999,28.6323836,"North Indian, Chinese, Italian, Continental",1000,No,No,2.7,2460
My Bar Square,Connaught Place,77.2213398,28.632837800000004,"North Indian, Chinese, Italian, Continental",1000,No,No,2.5,1096
Sagar Ratna,Connaught Place,77.220409,28.6356827,"South Indian, North Indian, Chinese",600,No,Yes,3.4,499
The Immigrant Cafe,Connaught Place,77.21900440000002,28.6340485,"North Indian, Italian, Continental",1100,Yes,No,3.2,563
MOB Brewpub,Connaught Place,77.2226422,28.6332756,"Continental, Italian, Asian, Indian",1500,No,No,4.7,52
Naturals Ice Cream,Connaught Place,77.2221482,28.6343484,Ice Cream,150,No,Yes,4.9,2620
Zabardast Indian Kitchen,Connaught Place,77.22217988,28.63259937,North Indian,1800,Yes,Yes,4.7,242
Anand Restaurant,Connaught Place,77.22080079999999,28.629023200000002,North Indian,550,No,No,3.6,485
Berco's,Connaught Place,77.2172977,28.632452100000002,"Chinese, Thai",1100,Yes,Yes,3.9,2639
Blues,Connaught Place,77.22061079,28.62986493,"Continental, Mexican, American, Italian, North Indian",1100,No,No,3.7,706
Burger King,Connaught Place,77.2212499,28.6327396,"Burger, Fast Food",500,No,Yes,3.8,2093
Burger Singh,Connaught Place,77.21751753,28.63432028,"Burger, Juices, Finger Food",500,No,Yes,3.6,548
Cafe Coffee Day The Square,Connaught Place,77.21993454,28.63372555,Cafe,700,No,No,3.6,361
Cafe Dalal Street,Connaught Place,77.2228667,28.6332522,"North Indian, European",1500,No,Yes,3.7,873
Cafe Hawkers,Connaught Place,77.22116009999999,28.6346126,"Chinese, Continental, North Indian",1200,Yes,No,3.7,673
Cafe Public Connection,Connaught Place,77.22026190000001,28.631480600000003,"North Indian, Continental, Italian",1200,Yes,No,3.7,834
Cafí© MRP,Connaught Place,77.2208907,28.6344973,"North Indian, Chinese, Italian, Mediterranean",800,No,No,3.6,877
Caffe Tonino,Connaught Place,77.2194535,28.6348977,"Pizza, Italian, Cafe",1400,No,Yes,3.9,1503
Cha Bar,Connaught Place,77.22215876,28.63122333,Cafe,500,No,No,3.9,3206
Chaayos,Connaught Place,77.22035263,28.63146522,"Cafe, Tea",400,No,Yes,3.9,487
Chew - Pan Asian Cafe,Connaught Place,77.2228218,28.632038399999995,"Asian, Japanese, Chinese, Thai",1700,Yes,Yes,3.9,2003
China Garden,Connaught Place,77.217118,28.6339581,Chinese,1800,Yes,No,3.9,496
Desi Vibes,Connaught Place,77.2206488,28.6302469,"North Indian, Mughlai",1400,Yes,Yes,3.9,841
Domino's Pizza,Connaught Place,77.2228959,28.633231199999997,"Pizza, Fast Food",700,No,No,3.7,336
Dunkin' Donuts,Connaught Place,77.22320214,28.62801416,"Burger, Desserts, Fast Food",600,No,Yes,3.8,271
Dunkin' Donuts,Connaught Place,77.2196331,28.6301662,"Burger, Desserts, Fast Food",600,No,No,3.9,1607
Embassy,Connaught Place,77.22100290000002,28.6336789,"North Indian, Continental, European",2000,Yes,Yes,3.5,706
FLYP@MTV,Connaught Place,77.22072076,28.63033313,"North Indian, Mexican, Italian, Continental",1200,Yes,No,3.9,1379
GoGourmet,Connaught Place,77.223175,28.627896999999997,"Healthy Food, Beverages",600,No,Yes,3.7,55
Haldiram's,Connaught Place,77.22232779999999,28.6340072,"Street Food, North Indian, South Indian, Chinese, Mithai",550,No,No,3.9,1151
Indian Grill Company,Connaught Place,77.22268709999999,28.6335935,"North Indian, Continental",1300,Yes,Yes,3.7,626
Jain Chawal Wale,Connaught Place,77.21612900000001,28.631893800000004,North Indian,250,No,Yes,3.8,301
Jungle Jamboree,Connaught Place,77.21617490000001,28.6324794,"North Indian, Continental, Chinese, Italian, Thai, Mughlai",1200,Yes,No,3.8,1174
Kake Da Hotel,Connaught Place,77.2218787,28.6350395,North Indian,600,No,No,3.5,2185
Kebab Xpress,Connaught Place,77.2196331,28.630524600000005,"North Indian, Mughlai",600,No,Yes,3.5,321
KFC,Connaught Place,77.217,28.631359999999997,"American, Fast Food",500,No,Yes,3.7,427
Khan Chacha,Connaught Place,77.2208907,28.6340493,"Mughlai, North Indian",650,No,Yes,3.7,1189
Kinbuck 2,Connaught Place,77.2163994,28.6320976,"North Indian, Italian, Mexican, Chettinad, Chinese, Lebanese",1600,No,No,3.9,1286
La Americana,Connaught Place,77.222736,28.6331936,"Fast Food, Burger",450,No,Yes,3.7,41
Lady Baga,Connaught Place,77.21645035,28.63123951,"Goan, Seafood",1200,Yes,Yes,3.7,277
Life Caffe,Connaught Place,77.21829101,28.63417726,"Cafe, North Indian, Italian, Japanese, Fast Food",1500,Yes,No,3.6,391
Lord of the Drinks,Connaught Place,77.2167587,28.6319527,"European, Chinese, North Indian, Italian",2200,No,No,3.9,2589
McDonald's,Connaught Place,77.216411,28.6323132,"Fast Food, Burger",500,No,No,3.8,388
McDonald's,Connaught Place,77.22015667,28.63000833,"Fast Food, Burger",500,No,No,3.7,108
Moets Arabica,Connaught Place,77.22082759999999,28.6303042,"Arabian, Mexican",400,No,No,3.5,95
Mother India,Connaught Place,77.2190709,28.6355337,"Bengali, South Indian, North Indian, Mughlai",1400,Yes,No,3.9,66
Mughlai Junction,Connaught Place,77.2204415,28.6307809,"North Indian, Mughlai",650,No,Yes,3.9,310
My Bar Headquarters,Connaught Place,77.2198128,28.630721,"North Indian, Mughlai, Chinese",1000,No,No,3.7,3010
Nando's,Connaught Place,77.21980177,28.63089815,"Portuguese, African",1200,No,Yes,3.7,1891
Nizam's Kathi Kabab,Connaught Place,77.2193637,28.6349788,"North Indian, Fast Food",900,No,No,3.8,1761
Oh My God,Connaught Place,77.2205314,28.6312375,"North Indian, Italian, Chinese, Mexican",1400,Yes,No,3.8,367
Open House Cafe,Connaught Place,77.22071037,28.63430998,"North Indian, Chinese, Mughlai, Italian",1700,No,No,3.8,1158
Parikrama - The Revolving Restaurant,Connaught Place,77.22263787,28.62845265,"North Indian, Chinese, Mughlai",2400,No,No,3.8,2689
Pind Balluchi,Connaught Place,77.21801070000001,28.630860700000003,"North Indian, Mughlai",1000,No,Yes,3.6,1434
Pizza Hut,Connaught Place,77.2228218,28.632217600000004,"Italian, Pizza, Fast Food",1000,No,Yes,3.5,541
Playboy Cafe,Connaught Place,77.2198128,28.630631400000002,"North Indian, Chinese, Continental",1100,Yes,No,3.7,140
Privee',Connaught Place,77.21826,28.620998999999998,"Chinese, Italian, Continental, North Indian",5000,No,No,3.6,61
Punjabi By Nature,Connaught Place,77.2197679,28.6308511,"North Indian, Mughlai",1100,Yes,Yes,3.7,1256
Quote - The Eclectic Bar and Lounge,Connaught Place,77.2171077,28.6308473,"Finger Food, European, North Indian",1700,Yes,No,3.5,422
Rajdhani Thali Restaurant,Connaught Place,77.22053636,28.62981696,"Gujarati, Rajasthani",950,No,Yes,3.6,1134
Route 04,Connaught Place,77.22008220000001,28.634868100000006,"Continental, American, Tex-Mex, North Indian",1350,Yes,Yes,3.5,1863
Sbarro,Connaught Place,77.21972290000001,28.630353999999997,"Pizza, Italian",600,No,Yes,3.5,1311
Shake Square,Connaught Place,77.2181959,28.6335234,"Beverages, Fast Food",400,No,No,3.7,1333
South Indian Snacks,Connaught Place,77.21608289,28.62612864,South Indian,300,No,No,3.6,50
SSKY Bar & Lounge,Connaught Place,77.22247191,28.6286716,"Mughlai, North Indian, Chinese",2800,Yes,No,3.5,92
Starbucks,Connaught Place,77.22063158,28.63014067,Cafe,700,No,No,3.8,552
Subway,Connaught Place,77.222238,28.6311315,"American, Fast Food, Salad, Healthy Food",500,No,Yes,3.5,276
Tamasha,Connaught Place,77.221744,28.629606,"Finger Food, North Indian, Continental, Italian",1600,Yes,No,3.7,1801
Taste of China,Connaught Place,77.2204748,28.6300841,"Chinese, Thai",1200,No,Yes,3.5,327
Teddy Boy,Connaught Place,77.2198128,28.630183399999996,"North Indian, Continental, Finger Food",1200,Yes,No,3.9,1020
The Beer Cafe - BIGGIE,Connaught Place,77.22080079999999,28.6339511,"Finger Food, North Indian, Italian",1250,Yes,No,3.8,645
The Flying Saucer Cafe,Connaught Place,77.2210703,28.6315577,"Italian, Mediterranean, Continental, North Indian",1500,Yes,No,3.9,143
The Junkyard Cafe,Connaught Place,77.2207923,28.6303196,"North Indian, Mediterranean, Asian",1500,Yes,No,3.9,1545
The Luggage Room Kitchen And Bar,Connaught Place,77.2228667,28.6331626,"North Indian, Continental, Fast Food",1400,Yes,No,3.5,63
The Rolling Joint,Connaught Place,77.2219685,28.6335249,Fast Food,450,No,Yes,3.9,783
The Vault Cafe,Connaught Place,77.21964553,28.63104411,"North Indian, Mediterranean, Asian, Continental",1600,Yes,No,3.9,3413
Veda,Connaught Place,77.2181061,28.635217200000003,"North Indian, Mughlai",1600,Yes,Yes,3.9,1087
Warehouse Cafe,Connaught Place,77.22086292,28.63384356,"American, Continental, Italian, North Indian, Asian",1500,No,No,3.7,4914
Zaffran,Connaught Place,77.221559,28.633616800000002,"North Indian, Mughlai",1800,No,No,3.9,908
Zen,Connaught Place,77.2192738,28.6342534,"Chinese, Japanese, Italian, Seafood",1500,Yes,Yes,3.5,1027
Zizo,Connaught Place,77.2199026,28.635299,"Lebanese, Mediterranean, Middle Eastern, Arabian",1600,Yes,Yes,3.9,1071
Kettle & Kegs,Connaught Place,77.23040999999999,28.636975,Tea,200,No,Yes,0.0,0
Ovenstory Pizza,Connaught Place,77.22946999999999,28.637044,"Pizza, Fast Food",500,No,Yes,0.0,0
Shree Hari Vaishnav Dhaba,Connaught Place,77.2296803,28.6302952,North Indian,200,No,No,0.0,2
38 Barracks,Connaught Place,77.22285848,28.63302489,"North Indian, Italian, Asian, American",1600,Yes,No,4.4,840
Ambrosia Bliss,Connaught Place,77.22212523,28.63386651,"North Indian, Chinese, Italian, Continental",1800,Yes,No,4.0,2333
Ardor 2.1,Connaught Place,77.22017209999998,28.630038399999997,"North Indian, Chinese, Continental, Italian",2000,Yes,Yes,4.1,1821
Barbeque Nation,Connaught Place,77.22067215,28.62996616,"North Indian, Chinese",1600,No,No,4.1,3164
Bikkgane Biryani,Connaught Place,77.2161897,28.6316714,"Biryani, North Indian, Hyderabadi",800,No,Yes,4.1,740
Biryani Blues,Connaught Place,77.2205314,28.6299831,"Biryani, Hyderabadi",1000,No,Yes,4.0,510
Caffe 9,Connaught Place,77.21621979999999,28.632438899999997,"North Indian, Chinese, Italian, American, Middle Eastern",2000,Yes,Yes,4.2,961
Excuse Me Boss,Connaught Place,77.22084570000001,28.630953899999998,"Continental, North Indian, Chinese, Mediterranean",1800,Yes,No,4.1,799
Fa Yian,Connaught Place,77.2172977,28.632810499999998,Chinese,1200,Yes,No,4.0,412
Farzi Cafe,Connaught Place,77.2214296,28.6323984,Modern Indian,2200,No,No,4.4,1942
Fuji Japanese Restaurant,Connaught Place,77.22193044,28.63298369,Japanese,2000,Yes,Yes,4.0,312
Healthy Routes,Connaught Place,77.2205314,28.634821399999996,"Healthy Food, Continental, Italian",800,Yes,Yes,4.0,361
HotMess,Connaught Place,77.222238,28.632654700000003,"North Indian, Mediterranean, Asian, Fast Food",1900,Yes,Yes,4.3,1129
House of Commons,Connaught Place,77.22277690000001,28.633064500000003,"Continental, Mediterranean, Italian, North Indian",1400,Yes,No,4.0,510
Johnny Rockets,Connaught Place,77.21972290000001,28.6304436,"Fast Food, American, Burger",1000,Yes,No,4.0,608
Odeon Social,Connaught Place,77.22090885,28.63424877,"Continental, American, Asian, North Indian",1600,Yes,No,4.1,1959
Pebble Street,Connaught Place,77.2204415,28.6302434,"Italian, Mexican, Continental, North Indian, Finger Food",1800,Yes,Yes,4.0,817
Piali - The Curry Bistro,Connaught Place,77.2198577,28.6352499,"Asian, North Indian",1200,Yes,Yes,4.1,400
Saravana Bhavan,Connaught Place,77.21630959999999,28.632357799999998,South Indian,500,No,Yes,4.3,5172
Smoke On Water,Connaught Place,77.22154379999999,28.6336429,"Continental, Mexican, Burger, American, Pizza, Tex-Mex",1300,Yes,No,4.1,467
Starbucks,Connaught Place,77.21770190000001,28.6321771,Cafe,700,No,No,4.1,2417
The Darzi Bar & Kitchen,Connaught Place,77.21913909999999,28.6355397,"North Indian, European",1500,Yes,No,4.1,90
The G.T. Road,Connaught Place,77.2228913,28.633227500000004,"North Indian, Afghani, Mughlai",1500,Yes,No,4.3,104
The Town House Cafe,Connaught Place,77.22054273,28.62997057,"Continental, North Indian, Italian, Asian",2100,Yes,No,4.0,2252
United Coffee House,Connaught Place,77.2212499,28.6324708,"North Indian, European, Asian, Mediterranean",2200,Yes,No,4.1,1838
Unplugged Courtyard,Connaught Place,77.22129744,28.63447388,"North Indian, Continental",1600,No,No,4.0,1758
Wenger's Deli,Connaught Place,77.2182858,28.6336216,"Bakery, Desserts, Fast Food",400,No,No,4.3,1457
Wenger's,Connaught Place,77.21833259999998,28.633367600000003,"Bakery, Fast Food, Desserts",400,No,No,4.3,3591
{Niche} - Cafe & Bar,Connaught Place,77.2225074,28.6315156,"North Indian, Chinese, Italian, Continental",1500,Yes,No,4.1,492
Chicken Minar,"Crescent Square Mall, Rohini",77.12501429999999,28.718147700000003,"North Indian, Chinese",550,No,Yes,2.6,77
G Lounge,"Crescent Square Mall, Rohini",77.124976,28.7182809,"North Indian, Chinese",1900,Yes,No,3.2,113
Gyms Kook,"Crescent Square Mall, Rohini",77.125077,28.718606400000002,"Continental, Italian",1000,No,Yes,3.3,140
Burger Joint,"Crescent Square Mall, Rohini",77.1248938,28.7183684,"Fast Food, Burger",300,No,Yes,3.5,164
Eleven to Eleven,"Cross River Mall, Karkardooma",77.3027142,28.657840000000004,"North Indian, Chinese",800,No,Yes,3.1,106
Le Chef,"Cross River Mall, Karkardooma",77.3023283,28.6571108,"North Indian, Chinese, South Indian, Fast Food",800,Yes,Yes,3.3,134
McDonald's,"Cross River Mall, Karkardooma",77.3022802,28.657631,"Fast Food, Burger",500,No,Yes,3.4,77
The Buffet Wagon,"Cross River Mall, Karkardooma",77.30228170000001,28.6576462,North Indian,950,Yes,Yes,3.3,102
Haldiram's,"Cross River Mall, Karkardooma",77.3018958,28.656711199999997,"North Indian, South Indian, Chinese, Street Food, Fast Food, Mithai, Desserts",600,No,No,3.5,217
Connexions Bar - Crowne Plaza,"Crowne Plaza Hotel, Rohini",77.1104921,28.7208561,Finger Food,2500,Yes,No,3.5,59
Deli - Crowne Plaza,"Crowne Plaza Hotel, Rohini",77.1104047,28.7203475,"Bakery, Desserts, Fast Food",1000,Yes,No,3.7,60
Lobby Lounge - Crowne Plaza,"Crowne Plaza, Mayur Vihar Phase 1",77.2974845,28.5902478,Finger Food,2000,Yes,No,3.2,12
Infinity - Crowne Plaza,"Crowne Plaza, Mayur Vihar Phase 1",77.29757430000001,28.590346000000004,"Italian, North Indian, Continental",3000,Yes,No,3.5,115
Fiery Grills,"D Mall, Netaji Subhash Place",77.1527715,28.6927868,"North Indian, Chinese, Continental",1000,Yes,No,3.3,165
McDonald's,"D Mall, Netaji Subhash Place",77.1527796,28.692512899999997,"Fast Food, Burger",500,No,Yes,3.4,41
Cafe Desire,"D Mall, Netaji Subhash Place",77.15260570000001,28.692631899999995,"North Indian, Chinese, Finger Food",1000,Yes,Yes,3.5,116
Haldiram's,"D Mall, Netaji Subhash Place",77.1518867,28.691936,"North Indian, South Indian, Chinese, Street Food, Fast Food, Mithai, Desserts",550,No,No,3.7,262
Kake Di Hatti,"D Mall, Netaji Subhash Place",77.15283459999999,28.692864500000002,North Indian,400,No,No,3.5,364
Akash Deep,Daryaganj,77.2403806,28.644239799999998,"North Indian, South Indian, Chinese, Fast Food",600,No,No,2.8,28
Al Saad Foods,Daryaganj,77.2321629,28.6433222,"North Indian, Fast Food",400,No,No,3.2,12
Cafe Coffee Day,Daryaganj,77.2402908,28.6445896,Cafe,450,No,No,2.8,22
Chandrika,Daryaganj,77.2373386,28.6409469,North Indian,400,No,No,2.9,6
Dawat-E-Chaman,Daryaganj,77.2402908,28.6464711,"North Indian, Mughlai",400,No,No,3.4,45
Kallu Nihari,Daryaganj,77.23732059999999,28.642125099999998,Mughlai,150,No,No,3.0,6
King Bikaneri,Daryaganj,77.2341388,28.6415395,"North Indian, Chinese, Fast Food, South Indian",400,No,No,2.9,6
Manchanda Bakery,Daryaganj,77.2442871,28.646179800000002,"Bakery, Fast Food",200,No,No,3.1,8
McDonald's,Daryaganj,77.2405333,28.6437229,"Fast Food, Burger",500,No,Yes,2.8,23
Mehta Restaurant,Daryaganj,77.24036159999999,28.644288699999997,"Street Food, Mithai",150,No,No,3.2,6
Shree Jee Rasoi,Daryaganj,77.24248890000001,28.62954592,"North Indian, Chinese",500,No,Yes,3.0,33
Taj Snacks,Daryaganj,77.2404704,28.6428148,South Indian,200,No,No,3.0,5
Zaika,Daryaganj,77.240526,28.6437016,"North Indian, Chinese, Mughlai",600,No,No,3.4,159
Bagli's Kitchen,Daryaganj,77.24076111,28.63814444,Parsi,500,No,No,3.7,85
Bhaja Govindam,Daryaganj,77.2360697,28.6411412,"North Indian, South Indian",700,Yes,No,3.8,189
Changezi Chicken,Daryaganj,77.2402908,28.643514500000002,"North Indian, Mughlai",500,No,Yes,3.7,519
Dilli Gate,Daryaganj,77.2404704,28.6428148,"North Indian, Chinese, Mughlai",500,No,No,3.5,26
Jahangeer Foods,Daryaganj,77.2404704,28.648280100000004,"North Indian, Mughlai",600,No,No,3.8,124
Moti Mahal,Daryaganj,77.240201,28.646193800000002,"North Indian, Chinese",1100,Yes,No,3.6,711
Nandlal Ka Dhaba,Daryaganj,77.24361359999999,28.6450853,"North Indian, Mughlai",500,No,No,3.6,109
Sugandh,Daryaganj,77.24361359999999,28.6451749,North Indian,400,No,No,3.7,57
Suvidha Vegetarian,Daryaganj,77.2398417,28.643740500000003,North Indian,350,No,No,3.6,88
Anupam Jalpan,Daryaganj,77.24361359999999,28.6450853,North Indian,200,No,No,0.0,0
Aunty's Kitchen,Daryaganj,77.24204959999999,28.644812199999997,North Indian,100,No,No,0.0,0
Cafe Coffee Day,Daryaganj,0.0,0.0,Cafe,450,No,No,0.0,0
Delhi 6 Foods,Daryaganj,0.0,0.0,North Indian,300,No,No,0.0,0
Fry Centre,Daryaganj,77.2404428,28.648229200000003,North Indian,200,No,No,0.0,0
Hilal Hotel Nihari,Daryaganj,0.0,0.0,Mughlai,400,No,No,0.0,0
Iqbal's Mughal Cuisine,Daryaganj,77.24141329999999,28.6444725,"North Indian, Mughlai",500,No,No,0.0,0
Kake Di Hatti Punjabi Khana,Daryaganj,77.2357696,28.6413413,North Indian,200,No,No,0.0,1
Kaushal Dhaba,Daryaganj,77.2357105,28.6410173,North Indian,150,No,No,0.0,0
Khan Foods,Daryaganj,77.24033283,28.6439042,Mughlai,400,No,No,0.0,0
Kumar Sweet House,Daryaganj,77.2444219,28.645251899999998,"Mithai, Street Food",150,No,No,0.0,1
Negi Restaurant,Daryaganj,77.2400213,28.641159299999998,North Indian,150,No,No,0.0,0
Old Delhi Food Factory,Daryaganj,77.243883,28.644931800000002,Mughlai,500,No,No,0.0,3
Parantha Point,Daryaganj,77.2420857,28.6448275,North Indian,100,No,No,0.0,1
R.P.W Pizza,Daryaganj,77.2419072,28.644762,Pizza,300,No,No,0.0,3
Rajdhani Restaurant,Daryaganj,77.2402908,28.6451272,North Indian,400,No,No,0.0,0
Roll's World,Daryaganj,77.23581329999999,28.641303399999998,Fast Food,200,No,No,0.0,0
Shree Krishna Dhaba,Daryaganj,77.24009609999999,28.6477718,"North Indian, South Indian",100,No,No,0.0,0
Taj Chicken Point,Daryaganj,0.0,0.0,"North Indian, Mughlai",400,No,No,0.0,0
Domino's Pizza,Daryaganj,77.24021409999999,28.644055600000005,"Pizza, Fast Food",700,No,No,2.3,32
Delhi 6 - Royal Cuisine Of The Walled City,Daryaganj,77.2400213,28.6480581,Mughlai,500,No,No,4.1,271
Food Hub,"DDA Market, Kalu Sarai, Hauz Khas",77.20389109999999,28.5419032,"Bakery, Fast Food",150,No,No,3.0,4
RR China Tawun,"DDA Market, Kalu Sarai, Hauz Khas",77.204111,28.5417882,Chinese,250,No,No,0.0,1
Aka Saka,Defence Colony,77.2304115,28.5730331,"Chinese, Japanese",1200,Yes,No,3.3,176
Anil Mishtan Wala,Defence Colony,77.2298726,28.5732507,"Mithai, Street Food",100,No,No,3.1,10
Barista,Defence Colony,77.230142,28.5735453,Cafe,650,No,Yes,3.3,73
Cafe 1 Fast Food,Defence Colony,77.22960309999999,28.573494,"Fast Food, Street Food",200,No,No,3.0,12
Cake Central - Premier Cake Design Studio,Defence Colony,0.0,0.0,"Bakery, Desserts",300,No,No,3.4,13
Chawla's Tandoori Junction,Defence Colony,77.23852559999999,28.57750982,"North Indian, Chinese, Mughlai",600,No,No,3.3,33
Chawnsan Chef,Defence Colony,77.2388538,28.578049199999995,"Mughlai, North Indian, Chinese",700,No,Yes,3.4,104
Choco Kraft,Defence Colony,77.238315,28.5774602,"Bakery, Desserts",300,No,Yes,3.2,12
Colonel's Kababz,Defence Colony,77.2305911,28.574036199999995,"North Indian, Mughlai",900,Yes,No,3.2,600
Confectionately Seerat's,Defence Colony,77.23181509999999,28.5765207,"Bakery, Desserts",600,No,No,3.2,13
Country Curries,Defence Colony,77.23840289,28.57825443,"North Indian, Bengali",700,No,Yes,2.7,8
Domino's Pizza,Defence Colony,77.23306099999999,28.566159399999997,"Pizza, Fast Food",700,No,No,2.5,78
Duggal's Rasoi,Defence Colony,77.2384946,28.578015100000002,"North Indian, Mughlai",600,No,No,3.4,35
Firefly India,Defence Colony,77.234004,28.572837300000003,"Bakery, Desserts",500,No,No,3.4,16
Fluffles - The Fluffy Waffle Co.,Defence Colony,77.230527,28.573371,Desserts,300,No,Yes,2.5,7
Giani's,Defence Colony,77.2305911,28.5734984,"Ice Cream, Desserts",400,No,Yes,2.8,26
Giani,Defence Colony,77.2298726,28.574415899999998,"Ice Cream, Desserts",400,No,Yes,3.3,29
Green Chick Chop,Defence Colony,77.238315,28.5773705,"Raw Meats, North Indian, Fast Food",350,No,No,2.7,16
Gulshan Fish & Chicken Fry,Defence Colony,77.2239446,28.5701766,North Indian,450,No,No,3.2,14
Kitchen22,Defence Colony,77.23050129999999,28.573131300000004,Fast Food,500,No,No,3.1,9
La Chocoallure,Defence Colony,77.23718248,28.57345367,Desserts,250,No,No,2.9,7
Little Dragon,Defence Colony,77.2298726,28.574146999999996,"Fast Food, Chinese",300,No,No,2.9,102
Maddi Sweet Centre,Defence Colony,77.22690859999999,28.574850800000004,"Mithai, Street Food",150,No,No,3.2,22
Man Vs Food The Kitchen,Defence Colony,77.23834699999999,28.576813,"North Indian, Mughlai",600,No,Yes,3.1,9
MB's,Defence Colony,77.2302318,28.5735538,"Continental, Chinese, North Indian",1600,Yes,No,3.1,128
Moet's Sizzlers,Defence Colony,77.2304115,28.5731228,Continental,1600,No,No,3.0,496
Oberoi's,Defence Colony,77.23895844,28.57772917,"North Indian, Mughlai",450,No,No,3.2,8
Punjabee's Darbar,Defence Colony,77.2387472,28.578638,"North Indian, Chinese",550,No,Yes,3.3,19
Qureshi's Kabab Corner,Defence Colony,77.238764,28.5783096,"North Indian, Mughlai",600,No,No,3.4,35
Saleem's Restaurant,Defence Colony,77.2382701,28.5777696,"North Indian, Mughlai, Chinese",600,No,Yes,3.2,53
Suri Saab Restaurant,Defence Colony,77.2386742,28.578569899999998,"North Indian, Chinese, Mughlai",600,No,Yes,3.0,39
The Sweet Boutique,Defence Colony,77.23684,28.572495,Bakery,300,No,No,3.3,25
Tibb's Frankie,Defence Colony,77.2298726,28.573967800000002,Fast Food,300,No,No,3.2,28
Veg Ex,Defence Colony,77.2384048,28.5780065,North Indian,500,No,Yes,3.4,44
Zaaika Junction,Defence Colony,77.2283618,28.5735915,"North Indian, Mughlai, Chinese",500,No,Yes,2.6,56
28 Capri Italy,Defence Colony,77.2302768,28.5727962,Italian,1500,Yes,Yes,3.9,245
4S Chinese Restaurant,Defence Colony,77.2304115,28.5731228,"Chinese, Thai",700,No,No,3.5,215
Amici Cafe,Defence Colony,77.2302318,28.5735538,"Cafe, Italian",1200,Yes,Yes,3.6,386
Angels in my Kitchen,Defence Colony,77.2304115,28.5738398,"Bakery, Desserts, Fast Food",350,No,Yes,3.8,460
Arabian Delites,Defence Colony,77.23812209999998,28.5776478,"Lebanese, Arabian",600,No,Yes,3.6,146
Baskin Robbins,Defence Colony,77.2299624,28.574066,Ice Cream,300,No,No,3.7,55
Cafe Brown Sugar,Defence Colony,77.2303217,28.5737416,"Cafe, Italian, Chinese",1000,No,Yes,3.7,390
Chakhnaa Wala,Defence Colony,77.23854159999999,28.5783289,"Mughlai, Fast Food",400,No,Yes,3.5,15
Cocoberry,Defence Colony,77.2302318,28.5735538,Desserts,300,No,Yes,3.6,130
Concept,Defence Colony,77.2388538,28.578228499999998,"North Indian, Mughlai, Chinese",600,No,No,3.9,301
Deez Biryani & Kebabs,Defence Colony,77.2386742,28.577852899999996,"Biryani, North Indian, Mughlai",800,Yes,Yes,3.7,338
Def Col Social,Defence Colony,77.2304115,28.5729435,"Continental, American, Asian, North Indian",1600,Yes,Yes,3.9,798
Dí_ner Grill,Defence Colony,77.2304115,28.5731228,"Fast Food, Turkish",900,No,Yes,3.8,192
Hong Kong Express,Defence Colony,77.238764,28.578399199999996,"Chinese, Thai",700,No,Yes,3.8,196
Kent's Fast Food,Defence Colony,77.2302318,28.5736434,"Burger, Fast Food",500,No,Yes,3.7,766
Koyla Kebab,Defence Colony,77.2298726,28.573967800000002,"North Indian, Mughlai",700,No,Yes,3.6,42
Meraki Cafe & Bar,Defence Colony,77.2338693,28.566684499999997,"North Indian, Continental, Chinese, Italian",1400,Yes,Yes,3.6,139
Milk Patisserie,Defence Colony,77.23133,28.573539,"Bakery, Desserts",300,No,Yes,3.8,24
Moets Curry Leaf,Defence Colony,77.2304115,28.573212400000003,"North Indian, Mughlai, Kashmiri",1500,Yes,Yes,3.5,208
Moets Oh! Bao,Defence Colony,77.23057840000001,28.5731536,"Chinese, Japanese, Thai",1200,Yes,Yes,3.6,99
Moets Shack,Defence Colony,77.2304115,28.573212400000003,"Seafood, Continental, European",1800,Yes,Yes,3.7,601
Moets Stone,Defence Colony,77.2304115,28.573212400000003,Italian,2000,Yes,Yes,3.8,354
Moti Mahal Delux,Defence Colony,77.2301869,28.573594399999998,"North Indian, Mughlai, Chinese",1000,Yes,Yes,3.8,130
Nizam's Kathi Kabab,Defence Colony,77.234004,28.566742100000003,"North Indian, Fast Food",900,No,Yes,3.8,303
NYC.PIE,Defence Colony,77.23034670000001,28.5729411,"Italian, Pizza",900,Yes,Yes,3.8,306
Raro,Defence Colony,77.2303666,28.573252899999996,"Cafe, Bakery",800,No,No,3.7,304
Sagar Ratna,Defence Colony,77.2304115,28.5731228,"North Indian, Chinese",600,No,Yes,3.7,308
Subway,Defence Colony,77.23050129999999,28.5732209,"American, Fast Food, Salad, Healthy Food",500,No,Yes,3.6,84
Swagath,Defence Colony,77.230142,28.5735453,"North Indian, Chinese, South Indian, Seafood, Chettinad",1500,Yes,No,3.9,749
The Jugaad Cafe Bar,Defence Colony,77.2301869,28.573594399999998,"North Indian, Chinese, Continental",1800,Yes,No,3.8,238
Chicken Biryani Centre,Defence Colony,77.2258308,28.5732244,Biryani,200,No,No,0.0,2
Ekta Restaurant,Defence Colony,77.22825590000001,28.5750687,North Indian,200,No,No,0.0,2
Garam Masala,Defence Colony,77.2254202,28.5728608,North Indian,300,No,No,0.0,0
Gulati Food Corner,Defence Colony,77.2260104,28.573151899999996,Chinese,150,No,No,0.0,2
Kolkatta Kathi Roll,Defence Colony,77.22861520000001,28.574027299999997,"North Indian, Fast Food",150,No,No,0.0,0
Muradabadi Shahi Biryani & Chicken Corner,Defence Colony,77.22861520000001,28.5741169,Mughlai,400,No,No,0.0,0
Rara Dragon,Defence Colony,77.2272935,28.5729113,Chinese,500,No,No,0.0,0
Mehfil,Defence Colony,77.2284355,28.5740102,"North Indian, Mughlai",600,No,No,2.4,35
Bonne Bouche,Defence Colony,77.2300522,28.573447100000003,"Italian, French",1750,Yes,Yes,4.1,711
Cafe Yell,Defence Colony,77.2301869,28.573594399999998,"Cafe, Continental, Italian",1000,Yes,No,4.4,50
Defence Bakery,Defence Colony,77.2301021,28.5737979,"Bakery, Fast Food",400,No,Yes,4.1,561
Desi Vibes,Defence Colony,77.230142,28.573814199999997,"North Indian, Mughlai",1500,Yes,Yes,4.0,183
Ek Bar,Defence Colony,77.23797072,28.57481074,Modern Indian,1700,Yes,Yes,4.1,242
Hwealthcafe,Defence Colony,77.2290642,28.574518199999996,"Cafe, Healthy Food, Continental",800,Yes,Yes,4.1,223
Kathputli,Defence Colony,77.230456,28.573742600000003,Rajasthani,900,Yes,Yes,4.1,769
Kulfiano,Defence Colony,77.2306809,28.573417300000003,Ice Cream,200,No,Yes,4.0,169
Number 31,Defence Colony,77.2302318,28.5735538,"Continental, Asian, Sushi",1600,Yes,Yes,4.2,63
RoadRomeo,Defence Colony,77.2303666,28.573252899999996,"North Indian, Hyderabadi, Kashmiri, Chinese",1650,Yes,Yes,4.0,460
Sagar Ratna,Defence Colony,77.2303217,28.5733831,"South Indian, North Indian, Chinese",600,No,Yes,4.0,782
The Culinary Pitaara,Defence Colony,77.228705,28.5742151,"North Indian, Chinese",900,No,Yes,4.2,95
Whipped,Defence Colony,77.230142,28.5739038,"Bakery, Desserts",550,No,Yes,4.2,372
Milko's,Delhi Cantt.,77.13403689,28.59645787,"Street Food, Mithai",200,No,No,0.0,2
Mom's Bake,Delhi Cantt.,77.12170769,28.59346375,"Bakery, Fast Food",200,No,No,0.0,0
RV Restaurant,Delhi Cantt.,77.13754522,28.56050598,"North Indian, Chinese, South Indian",300,No,No,0.0,0
Turning Point Fast Food,Delhi Cantt.,77.13251498,28.59696187,"South Indian, Chinese, Continental",600,No,No,0.0,1
A Vaishno Bhojnalaya,Delhi University-GTB Nagar,77.2039877,28.695273600000004,North Indian,100,No,No,3.1,29
Aim Delhi Cafe,Delhi University-GTB Nagar,77.208764,28.701238099999998,Cafe,400,No,No,3.4,69
Apni Rasoi,Delhi University-GTB Nagar,77.2076173,28.698499199999997,"North Indian, Chinese",400,No,Yes,2.8,109
Blue Bull Cafe,Delhi University-GTB Nagar,77.20418240000001,28.695695100000002,"Cafe, North Indian, Chinese",800,No,No,2.8,15
Cafe Bethak,Delhi University-GTB Nagar,77.2043172,28.6949468,"Cafe, Continental, Chinese",600,No,No,3.4,76
Cafe Coffee Day,Delhi University-GTB Nagar,77.20638559999999,28.6984528,Cafe,450,No,No,3.4,46
Cafe Coffee Day,Delhi University-GTB Nagar,77.20418240000001,28.694709999999997,Cafe,450,No,No,3.2,87
Chakhlo Food Court,Delhi University-GTB Nagar,77.2058893,28.6986347,"North Indian, South Indian, Chinese, Street Food, Fast Food",300,No,No,2.6,45
Domino's Pizza,Delhi University-GTB Nagar,77.20582990000001,28.6985993,"Pizza, Fast Food",700,No,No,2.5,109
Frontier,Delhi University-GTB Nagar,77.2066978,28.701488300000005,"Bakery, Desserts",200,No,No,3.0,8
Good Foods,Delhi University-GTB Nagar,77.1968157,28.689616700000002,"North Indian, Fast Food, Chinese",300,No,No,3.3,35
Grain Bell Restaurant,Delhi University-GTB Nagar,77.2105606,28.7039175,"North Indian, Chinese",450,No,Yes,2.8,81
Green Chick Chop,Delhi University-GTB Nagar,77.2040261,28.694949400000002,"Raw Meats, North Indian, Fast Food",350,No,Yes,3.1,72
Grover's - The Baker Shop,Delhi University-GTB Nagar,77.204262,28.696920000000002,"Bakery, Fast Food",100,No,No,3.0,18
Hookups Cafe & Lounge,Delhi University-GTB Nagar,77.2045418,28.6970729,"Chinese, Continental, North Indian",850,Yes,No,3.3,113
Jai Hind Dairy,Delhi University-GTB Nagar,77.20418240000001,28.6958742,Mithai,100,No,No,2.8,5
Kaveri,Delhi University-GTB Nagar,77.2052412,28.694644099999998,North Indian,300,No,No,3.3,51
Khushboo Vaishno Dhaba,Delhi University-GTB Nagar,77.2045418,28.709968800000002,North Indian,150,No,No,2.9,5
Korea Restaurant,Delhi University-GTB Nagar,77.20880890000001,28.701287199999996,Korean,900,Yes,No,3.0,82
Kukkad Nukkad,Delhi University-GTB Nagar,77.20406559999999,28.695522600000004,North Indian,600,No,Yes,3.0,12
Metro Fast Food,Delhi University-GTB Nagar,77.2127619,28.6950637,"Chinese, Fast Food",350,No,Yes,2.6,26
Mughlai Flavours,Delhi University-GTB Nagar,77.2050359,28.6944781,Mughlai,300,No,Yes,3.2,17
Pitstop,Delhi University-GTB Nagar,77.20575459999999,28.7022489,"North Indian, Mughlai, Chinese",600,No,Yes,3.3,85
Pizza Hut,Delhi University-GTB Nagar,77.20422640000001,28.695304800000002,"Italian, Pizza, Fast Food",1000,No,Yes,3.4,143
Prince Snacks & Momo's Point,Delhi University-GTB Nagar,77.204991,28.6945186,Chinese,300,No,No,3.4,39
Qash Retro Bar,Delhi University-GTB Nagar,77.2043621,28.695801899999996,"Finger Food, North Indian, Italian",2000,Yes,No,2.7,81
Red Chillies,Delhi University-GTB Nagar,77.20418769999999,28.6961065,Fast Food,250,No,No,3.3,69
Samrat Bakers,Delhi University-GTB Nagar,77.20758959999999,28.698468300000002,"Bakery, Fast Food",200,No,No,2.6,16
Samrat Restaurant,Delhi University-GTB Nagar,77.2051324,28.6989923,"North Indian, Chinese, South Indian, Fast Food",700,No,No,3.4,173
Shammi Bhai Lassi Wala,Delhi University-GTB Nagar,77.2049573,28.6989525,"Chinese, Beverages",400,No,No,3.2,45
Shooters Lounge and Bar,Delhi University-GTB Nagar,77.2043172,28.694409399999998,"North Indian, Chinese",1100,No,No,2.7,50
Singh Ching,Delhi University-GTB Nagar,77.20418240000001,28.695695100000002,"North Indian, Chinese, Mughlai",600,No,Yes,3.4,427
Southy,Delhi University-GTB Nagar,77.2062475,28.698366399999998,South Indian,450,No,Yes,2.6,138
Take n Taste Shawarma Zone,Delhi University-GTB Nagar,77.20517535,28.69445928,Fast Food,100,No,No,3.0,14
The Night Owl,Delhi University-GTB Nagar,77.2048468,28.699188300000003,Chinese,450,No,Yes,2.8,51
Tilak's The Diners,Delhi University-GTB Nagar,77.2051338,28.698872899999998,"North Indian, Chinese, Fast Food",700,No,Yes,3.1,130
Spezia Bistro,Delhi University-GTB Nagar,77.20414129999999,28.694839,"Cafe, Continental, Chinese, Italian",900,Yes,Yes,4.6,1071
Cent Percent The Pastry Shop,Delhi University-GTB Nagar,77.2044468,28.6963995,"Bakery, Fast Food",250,No,Yes,3.6,258
For God's Cake,Delhi University-GTB Nagar,77.2042568,28.6951581,Bakery,250,No,Yes,3.9,533
Laxmi Ice Cream,Delhi University-GTB Nagar,77.2044507,28.696885899999998,"Ice Cream, Desserts",150,No,No,3.7,93
Mirch Masala MM Cafe,Delhi University-GTB Nagar,77.20421,28.6959218,"North Indian, Chinese, Cafe",550,No,Yes,3.7,484
Moh Maya Cafe,Delhi University-GTB Nagar,77.204109,28.694703000000004,"North Indian, Continental, Chinese, Italian, Lebanese",1000,Yes,No,3.7,49
QD's Restaurant,Delhi University-GTB Nagar,77.2042559,28.6951592,"Chinese, North Indian, Fast Food, Italian",800,No,Yes,3.9,2724
SuperHero Cafe,Delhi University-GTB Nagar,77.207686,28.6959407,"Cafe, Chinese, Italian",550,No,Yes,3.8,541
Suresh Fast Food,Delhi University-GTB Nagar,77.2052605,28.6947235,"North Indian, Chinese",250,No,No,3.7,91
Wood Box Cafe,Delhi University-GTB Nagar,77.20479859999999,28.6943941,"Cafe, Fast Food, Italian, Chinese",650,Yes,Yes,3.8,1970
Best Biryani,Delhi University-GTB Nagar,77.2076069,28.698459999999997,Mughlai,400,No,No,0.0,0
Derawal Soda Fountain,Delhi University-GTB Nagar,77.2049915,28.7004311,Beverages,100,No,No,0.0,1
Eat & Gulp,Delhi University-GTB Nagar,77.2112792,28.7045236,"Fast Food, Italian",300,No,No,0.0,1
L.N Live Kitchen,Delhi University-GTB Nagar,77.2050973,28.697983899999997,"Chinese, Fast Food",300,No,No,0.0,0
Papa Buns,Delhi University-GTB Nagar,77.2039851,28.694377600000003,Cafe,250,No,No,0.0,1
Preet Fast Foods,Delhi University-GTB Nagar,77.2052605,28.7014404,Street Food,50,No,No,0.0,0
Sikkim Chinese Food,Delhi University-GTB Nagar,77.2132353,28.696064500000002,Chinese,350,No,No,0.0,2
Tawa King,Delhi University-GTB Nagar,77.20274509999999,28.694930699999997,North Indian,350,No,No,0.0,0
The Pork Shop,Delhi University-GTB Nagar,77.20346611,28.68074736,Chinese,400,No,Yes,0.0,3
TiffinToons,Delhi University-GTB Nagar,77.19461525,28.69248552,"North Indian, South Indian",200,No,No,0.0,0
Vaishno Rasoi,Delhi University-GTB Nagar,77.2045418,28.710327000000003,North Indian,350,No,No,0.0,3
Sagar Ratna,Delhi University-GTB Nagar,77.2077758,28.6979196,"South Indian, North Indian, Chinese",600,No,Yes,2.4,147
Slice of Italy,Delhi University-GTB Nagar,77.2040764,28.6955728,"Italian, Pizza, Bakery",700,No,Yes,2.4,148
Bakar The Cafe,Delhi University-GTB Nagar,77.20314990000001,28.695130600000002,Cafe,400,No,No,4.1,111
Indus Flavour,Delhi University-GTB Nagar,77.2029696,28.6956238,"North Indian, Chinese, Cafe",700,Yes,Yes,4.1,1384
Raw Creams,Delhi University-GTB Nagar,77.2043172,28.6958424,"Ice Cream, Desserts, Beverages",250,No,Yes,4.3,156
Ricos,Delhi University-GTB Nagar,77.2041921,28.6948159,"Cafe, Mexican, American, Italian, Lebanese, Continental",900,No,No,4.3,4085
The Hudson Cafe,Delhi University-GTB Nagar,77.2043172,28.6949468,"Cafe, Italian, Continental, Chinese",850,No,Yes,4.4,1537
YOLO 21,Delhi University-GTB Nagar,77.2042723,28.6950768,"Cafe, Italian, Continental",700,Yes,No,4.2,1526
Assam Food Stall,"Dilli Haat, INA",77.2063385,28.5730696,"Assamese, Chinese",400,No,No,2.8,45
Darbar E Awadh,"Dilli Haat, INA",77.20696729999999,28.573308899999997,"North Indian, Mughlai",750,No,No,3.2,26
Hotel Tamil Nadu,"Dilli Haat, INA",77.2063385,28.572979999999998,South Indian,350,No,No,3.1,13
Incrivel Goa,"Dilli Haat, INA",77.20622929999999,28.5731135,Goan,700,No,Yes,2.5,29
Lakshadweep,"Dilli Haat, INA",77.20719190000001,28.5733751,"North Indian, Chinese, South Indian",200,No,No,2.8,11
Odisha,"Dilli Haat, INA",77.2067876,28.5736502,Oriya,450,No,No,3.1,52
Rajasthan Food Stall No. 1,"Dilli Haat, INA",77.2065181,28.573355699999997,"Rajasthani, North Indian",400,No,No,3.4,69
Shillong View,"Dilli Haat, INA",77.207032,28.573381,Chinese,350,No,No,3.0,36
Wazwan,"Dilli Haat, INA",77.2070571,28.5734071,Kashmiri,700,No,No,3.1,44
Zayaka,"Dilli Haat, INA",77.2072657,28.573313899999995,"Chinese, North Indian, Fast Food",450,No,No,2.8,8
Bihar ki Rasoi,"Dilli Haat, INA",77.2065181,28.573355699999997,Bihari,500,No,No,3.5,28
Bijoli Grill,"Dilli Haat, INA",77.2063385,28.572979999999998,"Bengali, North Indian, Chinese",800,No,No,3.7,182
Maharashtra Food Stall,"Dilli Haat, INA",77.2062936,28.573110200000002,Maharashtrian,350,No,No,3.6,93
Manipur Food Stall,"Dilli Haat, INA",77.2065181,28.573355699999997,"Chinese, Fast Food",450,No,No,3.6,72
Momo Mia,"Dilli Haat, INA",77.20696729999999,28.573308899999997,Chinese,400,No,No,3.8,152
Mother Dairy Ice Cream,"Dilli Haat, INA",77.2063385,28.5730696,"Desserts, Ice Cream, North Indian",250,No,No,3.5,19
Nagaland,"Dilli Haat, INA",77.20624570000001,28.573123,"Chinese, Naga",800,Yes,No,3.7,143
Navdanya Organic Food Cafe,"Dilli Haat, INA",77.20626709999999,28.5731173,North Indian,450,No,No,3.5,24
Tashi Delek Food Stall,"Dilli Haat, INA",77.20665290000001,28.573323699999996,"Chinese, Tibetan",400,No,No,3.5,30
Punjabi Rasoi,"Dilli Haat, INA",77.2062599,28.573126600000002,North Indian,700,No,No,2.3,30
Aggarwal Bikaner Sweets,Dilshad Garden,77.3263341,28.6840941,"Mithai, Street Food",350,No,No,3.0,9
Angels Kitchen,Dilshad Garden,77.32792842,28.69405251,"North Indian, Mughlai, Chinese",500,No,No,3.2,10
Bedi's Kabab Corner,Dilshad Garden,77.3153088,28.6793527,"Mughlai, North Indian",500,No,No,3.2,15
Bravo Diet Food and Nutrition,Dilshad Garden,77.3228257,28.6880418,Healthy Food,300,No,No,3.0,7
Chacha Chicken,Dilshad Garden,77.32436109999999,28.6866525,North Indian,600,No,No,2.8,9
Chao Cart,Dilshad Garden,77.3133238,28.681270899999998,"Chinese, Fast Food",350,No,No,3.3,32
Chimney,Dilshad Garden,77.31063947,28.68787472,North Indian,400,No,No,2.9,4
Chutneez Ishtyle Bar and Dining,Dilshad Garden,77.3216767,28.675899800000003,"North Indian, Chinese, Mughlai",1200,Yes,Yes,3.3,56
Deep Chicken Point,Dilshad Garden,77.3138803,28.6785183,North Indian,600,No,No,3.0,16
Domino's Pizza,Dilshad Garden,77.3219584,28.676067600000003,"Pizza, Fast Food",700,No,No,3.3,87
Govind Dhaba,Dilshad Garden,77.31879670000001,28.681040999999997,North Indian,200,No,No,3.4,39
Huddle Cafe,Dilshad Garden,77.3165977,28.680441,"Fast Food, Beverages",250,No,No,3.4,23
Kovilakam,Dilshad Garden,77.32652390000001,28.684012300000003,"South Indian, North Indian",400,No,No,3.2,11
Mathur's Kitchen,Dilshad Garden,77.31412009999998,28.6843495,North Indian,450,No,Yes,2.6,15
McDonald's,Dilshad Garden,77.3218233,28.676014600000002,"Fast Food, Burger",500,No,Yes,3.3,65
New South Indian Hut,Dilshad Garden,77.32353690000001,28.682750199999997,South Indian,300,No,No,3.1,7
Night Bite,Dilshad Garden,77.31573399,28.68331488,"North Indian, Chinese, Continental",500,No,No,2.6,14
Pizza Station,Dilshad Garden,77.32611515,28.68426375,"Pizza, Fast Food",300,No,No,3.0,7
Pummy Restaurant,Dilshad Garden,77.3212477,28.681528600000004,"North Indian, South Indian",500,No,No,2.7,14
Republic of Chicken,Dilshad Garden,77.3237521,28.687787100000005,"Raw Meats, Fast Food",400,No,No,3.0,4
Salt N' Pepper,Dilshad Garden,77.3138452,28.680392699999995,"North Indian, Chinese",500,No,Yes,2.7,177
Shahi Zaikaa,Dilshad Garden,77.32632009999999,28.683970799999997,"North Indian, Mughlai",800,No,No,3.0,6
Shubham,Dilshad Garden,77.3149321,28.6780803,"Fast Food, North Indian, South Indian, Chinese",350,No,No,2.7,39
South Indian Corner,Dilshad Garden,77.32037220000001,28.681763899999996,South Indian,200,No,No,3.3,27
Sultan Food,Dilshad Garden,77.3225314,28.6818859,Mughlai,300,No,Yes,3.1,14
Uncle Bakery,Dilshad Garden,77.3175002,28.6804166,"Bakery, Fast Food",100,No,No,3.1,15
Urban Chopstick,Dilshad Garden,77.3135599,28.678167900000002,Chinese,400,No,Yes,2.6,50
Urban Kabab,Dilshad Garden,77.3130113,28.6784414,"North Indian, Chinese",600,No,Yes,3.1,97
Urban Punjab,Dilshad Garden,77.3172671,28.6805428,"North Indian, Chinese",600,No,No,3.2,103
Haldiram's,Dilshad Garden,77.3220465,28.675573800000002,"North Indian, South Indian, Chinese, Street Food, Fast Food, Mithai, Desserts",600,No,No,3.5,88
Pizza Hut Delivery,Dilshad Garden,77.32103000000001,28.675965100000003,"Italian, Pizza, Fast Food",800,No,Yes,3.6,107
Aggarwal Sweet Corner,Dilshad Garden,77.31474,28.6789662,"Mithai, Street Food",150,No,No,0.0,0
Amritsari Naan Hut,Dilshad Garden,77.31747790000001,28.682656599999998,North Indian,200,No,No,0.0,1
Annapurna Bhojnalaya,Dilshad Garden,77.31917709999999,28.680210600000002,North Indian,200,No,No,0.0,2
Asia,Dilshad Garden,77.31946070000001,28.680372600000002,North Indian,500,No,No,0.0,0
Bablu Chinese Food,Dilshad Garden,77.3221198,28.676643900000002,Fast Food,200,No,No,0.0,0
Bikaner Rasoi,Dilshad Garden,77.3240717,28.686837100000005,North Indian,400,No,No,0.0,1
Crazzy Bite,Dilshad Garden,77.32435179999999,28.686955600000005,Chinese,400,No,No,0.0,0
Da Pizza Farm,Dilshad Garden,0.0,0.0,Italian,400,No,No,0.0,1
Dada Ka,Dilshad Garden,77.3200498,28.680645600000002,"Mughlai, Chinese",250,No,No,0.0,0
Friends N Foods,Dilshad Garden,77.32285928,28.68393079,Chinese,300,No,No,0.0,0
Hot N Fresh Pizza,Dilshad Garden,77.3179939,28.6806874,Pizza,400,No,No,0.0,0
Kake Di Chap,Dilshad Garden,77.3174105,28.6804081,Fast Food,400,No,No,0.0,2
Kathi Junction,Dilshad Garden,77.3180387,28.680646799999998,Fast Food,250,No,No,0.0,0
KSG,Dilshad Garden,77.30874181,28.67811889,Mughlai,300,No,No,0.0,1
Mahavrer Chap Express,Dilshad Garden,77.3182032,28.680840500000002,North Indian,300,No,No,0.0,0
Mamma Drools,Dilshad Garden,77.31516409999999,28.6784646,North Indian,200,No,No,0.0,0
Pawan Foods,Dilshad Garden,77.31044468,28.68845296,"Chinese, North Indian",500,No,No,0.0,0
Pizza Hub,Dilshad Garden,77.31509270000001,28.6785109,Pizza,350,No,No,0.0,2
Prem Rasoi,Dilshad Garden,77.30951831,28.68780825,North Indian,400,No,No,0.0,0
Sanjha Chulah Babe Da,Dilshad Garden,77.29831667,28.65281944,North Indian,350,No,No,0.0,2
Shakun Cook-Du-Ku,Dilshad Garden,77.32272270000001,28.6859527,"Chinese, North Indian",300,No,No,0.0,0
The Taste of Punjab,Dilshad Garden,77.30948444,28.68853914,"Chinese, North Indian",350,No,No,0.0,1
Vaishno Bhojanalaya,Dilshad Garden,77.31081113,28.68710648,"North Indian, Chinese",250,No,No,0.0,2
Wrap N Roll,Dilshad Garden,77.3207312,28.681708299999997,Chinese,300,No,No,0.0,1
Zaika-E-Chaap Express,Dilshad Garden,77.30820905,28.67788563,North Indian,250,No,No,0.0,0
Slice of Italy,Dilshad Garden,77.30849136,28.67810565,"Italian, Pizza, Bakery",700,No,Yes,2.3,57
Bemisaal,"District Centre, Janakpuri",77.0800517,28.6301104,"North Indian, Chinese",800,Yes,Yes,3.4,122
Grillz,"District Centre, Janakpuri",77.0813721,28.630142699999997,Fast Food,500,No,Yes,2.5,85
Tandoor Ka Zaika,"District Centre, Janakpuri",77.0807745,28.6301924,"North Indian, Chinese, Fast Food",400,No,No,2.6,55
The Barley House,"District Centre, Janakpuri",77.08152559999999,28.629820199999997,"Mexican, North Indian, European, Chinese, Italian",1200,Yes,Yes,3.4,35
Muffins,"District Centre, Janakpuri",77.08131329999999,28.6305419,"Bakery, Fast Food",300,No,No,3.5,56
Dilli Darbar,"District Centre, Janakpuri",77.0818722,28.630087699999997,"North Indian, Chinese",1200,Yes,No,2.3,118
Cafe Coffee Day,"DLF City Centre Mall, Shalimar Bagh",77.1582677,28.702936100000002,Cafe,450,No,No,3.0,29
Domino's Pizza,"DLF City Centre Mall, Shalimar Bagh",77.15817779999999,28.703017100000004,"Pizza, Fast Food",700,No,No,3.0,63
Kings Kulfi,"DLF City Centre Mall, Shalimar Bagh",77.1582677,28.702936100000002,Ice Cream,150,No,No,3.3,14
McDonald's,"DLF City Centre Mall, Shalimar Bagh",77.1581925,28.7029534,"Fast Food, Burger",500,No,No,3.6,62
Tibb's Frankie,"DLF City Centre Mall, Shalimar Bagh",77.15819429999999,28.7029971,Fast Food,350,No,No,0.0,2
Cafe E,"DLF Emporio Mall, Vasant Kunj",77.15665989,28.54283324,"Cafe, Continental",1600,No,No,3.5,83
Cha-Shi,"DLF Emporio Mall, Vasant Kunj",77.15718493,28.54370415,"Thai, Chinese, Asian, Malaysian",1500,Yes,No,3.8,118
Habibi,"DLF Place Mall, Saket",77.2170282,28.527655,"Middle Eastern, Mediterranean, North Indian",1800,Yes,Yes,3.1,134
Tikka Town,"DLF Place Mall, Saket",77.21589714,28.52890209,North Indian,550,No,No,2.8,138
4700BC Popcorn,"DLF Place Mall, Saket",77.21664059999999,28.5281701,Fast Food,400,No,Yes,3.8,152
Al Zaitoon,"DLF Place Mall, Saket",77.21593738,28.52888088,"Lebanese, Mediterranean, Arabian",850,No,Yes,3.5,246
Dunkin' Donuts,"DLF Place Mall, Saket",77.21688252,28.52822812,"Burger, Desserts, Fast Food",600,No,No,3.8,426
Foodhall,"DLF Place Mall, Saket",77.21723221,28.52766814,"Bakery, Italian, Chinese, Mexican",700,No,No,3.9,71
Haldiram's,"DLF Place Mall, Saket",77.21655529,28.52844757,"Street Food, North Indian, South Indian, Chinese, Mithai",350,No,No,3.7,229
TGI Friday's,"DLF Place Mall, Saket",77.21612245,28.52857924,"American, Tex-Mex",2500,Yes,Yes,3.7,984
The Beer Cafe,"DLF Place Mall, Saket",77.21922308,28.53230279,"Finger Food, North Indian, Italian",1200,No,No,3.5,295
Big Chill,"DLF Place Mall, Saket",77.21779615,28.52817627,"Italian, Continental, European, Cafe",1500,No,No,4.4,2777
Cinnabon,"DLF Place Mall, Saket",77.21694253,28.52799453,"Desserts, Cafe",400,No,Yes,4.1,397
RollsKing,"DLF Place Mall, Saket",77.21593738,28.52888088,Fast Food,400,No,No,4.1,71
Tikka Town,"DLF Promenade Mall, Vasant Kunj",77.15555390000002,28.542906899999995,North Indian,550,No,No,3.2,118
Cafe Brown Sugar,"DLF Promenade Mall, Vasant Kunj",77.15549883,28.54273752,Fast Food,750,No,Yes,3.6,161
Chaayos,"DLF Promenade Mall, Vasant Kunj",77.15574123,28.54284148,"Cafe, Tea",400,No,No,3.9,91
Cinnabon,"DLF Promenade Mall, Vasant Kunj",77.15598,28.542494,"Desserts, Cafe",400,No,Yes,3.9,360
Foodhall,"DLF Promenade Mall, Vasant Kunj",77.15693682,28.54270924,"Bakery, Italian, Chinese, Mexican",700,No,No,3.7,69
Haldiram's,"DLF Promenade Mall, Vasant Kunj",77.1553105,28.5427394,"North Indian, South Indian, Chinese, Street Food, Fast Food, Mithai, Desserts",600,No,No,3.7,134
Keventers,"DLF Promenade Mall, Vasant Kunj",77.15570837,28.542738699999997,Beverages,400,No,No,3.8,154
Krispy Kreme,"DLF Promenade Mall, Vasant Kunj",77.15590451,28.54268656,"Desserts, Beverages",350,No,Yes,3.9,98
L'Opera,"DLF Promenade Mall, Vasant Kunj",77.15617541,28.54235257,"Bakery, Desserts, Fast Food",400,No,Yes,3.8,159
Mad Over Donuts,"DLF Promenade Mall, Vasant Kunj",77.15601213,28.54260469,Desserts,450,No,Yes,3.7,169
Starbucks,"DLF Promenade Mall, Vasant Kunj",77.15557222,28.54234722,Cafe,700,No,No,3.9,109
The Beer Cafe,"DLF Promenade Mall, Vasant Kunj",77.15613484,28.54260027,"Finger Food, North Indian, Italian",1250,No,No,3.8,170
Ooh Lala !,"DLF Promenade Mall, Vasant Kunj",77.15556856,28.54264798,"American, Fast Food, Desserts",500,No,No,4.0,154
Domino's Pizza,"DLF South Square, Sarojini Nagar",77.194929,28.576014,"Pizza, Fast Food",700,No,No,2.7,59
Flaming Wok,"DLF South Square, Sarojini Nagar",77.1951986,28.5762189,"Chinese, Seafood",1500,Yes,Yes,2.7,112
Frontier,"DLF South Square, Sarojini Nagar",77.194929,28.576103600000003,Bakery,200,No,No,3.0,11
Haldiram's,"DLF South Square, Sarojini Nagar",77.1951986,28.576398200000003,"North Indian, South Indian, Chinese, Street Food, Fast Food, Mithai, Desserts",300,No,No,3.6,195
McDonald's,"DLF South Square, Sarojini Nagar",77.194929,28.576014,"Fast Food, Burger",500,No,Yes,3.5,100
Meatwale.com,"DLF South Square, Sarojini Nagar",77.194929,28.576103600000003,"North Indian, Indian",300,No,No,0.0,0
Subway,"DLF South Square, Sarojini Nagar",77.1951986,28.5762189,"American, Fast Food, Salad, Healthy Food",500,No,Yes,2.4,65
Twenty Four Seven,Dr. Zakir Hussain Marg,77.2374755,28.602169300000003,"Fast Food, North Indian",300,No,No,2.9,7
Wah Ji Wah,Durga Puri,0.0,0.0,North Indian,350,No,No,2.9,8
Aggarwal Sweets,East of Kailash,77.25664444,28.55948889,Mithai,100,No,No,2.7,10
Al-Malik,East of Kailash,77.25142501,28.55597567,"North Indian, Mughlai, Chinese",600,No,No,3.2,21
Bikaner Sweets,East of Kailash,77.25097778,28.55600833,"Street Food, South Indian, Mithai",200,No,No,2.8,13
Cafe Coffee Day,East of Kailash,77.245962,28.558244000000002,Cafe,450,No,No,2.7,24
Delhi Rasoi,East of Kailash,77.24570923,28.55801293,"North Indian, Chinese, South Indian",500,No,No,3.3,19
Food Land,East of Kailash,77.25065019,28.55561316,"North Indian, Chinese",300,No,Yes,3.2,16
Froshier Fruits,East of Kailash,0.0,0.0,Healthy Food,100,No,No,3.0,7
Govinda's Confectionery,East of Kailash,77.25350372,28.5564445,Bakery,150,No,No,3.1,12
Halka Fulka,East of Kailash,77.251334,28.555408,Fast Food,400,No,Yes,3.1,11
Hasty Tasty,East of Kailash,77.256582,28.559209000000003,Chinese,300,No,No,2.8,12
Ikreate,East of Kailash,77.2540139,28.561846600000003,Bakery,400,No,No,3.1,9
Khan's Dilli-6 Biryani,East of Kailash,77.24476,28.562469,"Biryani, Mughlai",500,No,No,3.0,19
Kolkata Hot Kathi Roll,East of Kailash,77.24970538,28.55546709,North Indian,250,No,No,2.7,21
Kowloon Express,East of Kailash,77.2474937,28.553210800000002,"North Indian, Italian, Chinese, Fast Food",400,No,Yes,3.4,17
LaDiDa,East of Kailash,77.24607540000001,28.557349600000006,"Bakery, Desserts",500,No,No,3.2,14
Litti.In,East of Kailash,77.248986,28.556008000000002,Bihari,300,No,Yes,2.8,4
Mughals Rasoi,East of Kailash,77.24965878,28.55559431,"North Indian, Mughlai, Chinese",700,No,Yes,3.2,38
Naagar Foods,East of Kailash,77.25349179999999,28.556672499999998,North Indian,200,No,No,3.1,17
Novelty Chicken Corner,East of Kailash,77.25683268,28.55942527,"North Indian, Mughlai",650,No,Yes,3.3,61
Raju Vaishnav Dhaba,East of Kailash,77.2515556,28.55691625,"North Indian, South Indian",350,No,No,3.2,19
Republic of Chicken,East of Kailash,77.24754159999999,28.553039799999997,"Raw Meats, Fast Food",400,No,No,2.9,4
Shiv Shakti Vaishno Bhojnalaya,East of Kailash,77.24604115,28.55872293,North Indian,500,No,No,3.1,22
Spice Tree,East of Kailash,77.24759415,28.55342536,"North Indian, Mughlai, Chinese",400,No,Yes,2.7,12
Vadapav Junction,East of Kailash,77.254524,28.560028000000003,Maharashtrian,350,No,Yes,3.2,14
Zaaika Junction,East of Kailash,77.24581651,28.55854948,"Chinese, Mughlai, North Indian",500,No,Yes,3.1,25
17 Degree Food Service,East of Kailash,0.0,0.0,North Indian,260,No,No,0.0,1
Aggarwal Eating Point,East of Kailash,77.25370757,28.55692569,"Street Food, Mithai",150,No,No,0.0,2
Al- Laziz,East of Kailash,77.24972282,28.55566852,Mughlai,500,No,No,0.0,0
Al- Sheikh,East of Kailash,77.24579573,28.55838722,"Afghani, Mughlai, Chinese",500,No,No,0.0,2
Anupama Sweets & Restaurant,East of Kailash,77.2480855,28.5540294,"North Indian, Mithai",400,No,No,0.0,2
Aurangzeb,East of Kailash,0.0,0.0,"Mughlai, Chinese",500,No,No,0.0,1
Da Pizza Corner,East of Kailash,77.2529833,28.557710999999998,"Fast Food, Pizza",600,No,Yes,0.0,2
Delhi Food Adda,East of Kailash,0.0,0.0,"Chinese, North Indian",400,No,No,0.0,0
Delhi Lazeez,East of Kailash,77.2475006,28.554371399999997,North Indian,500,No,Yes,0.0,2
Delhi Pizza Corner,East of Kailash,0.0,0.0,"Pizza, Fast Food",100,No,No,0.0,2
Dessert Carte,East of Kailash,0.0,0.0,"Bakery, Desserts",500,No,No,0.0,0
Firangi Mithai,East of Kailash,0.0,0.0,Bakery,250,No,No,0.0,0
Ghar Ka Khana,East of Kailash,77.25076921,28.55558547,North Indian,100,No,No,0.0,0
Heera Chicken Corner,East of Kailash,0.0,0.0,Fast Food,300,No,No,0.0,0
Jagram Dhaba,East of Kailash,77.24972147,28.555402299999997,North Indian,150,No,No,0.0,2
Janaab,East of Kailash,0.0,0.0,"Awadhi, Mughlai, North Indian",600,No,No,0.0,1
K.K. Fast Food Service,East of Kailash,77.24595934,28.55813632,North Indian,200,No,Yes,0.0,3
Kasur Khyon,East of Kailash,77.24604529999999,28.5590781,"Mughlai, Chinese",500,No,No,0.0,0
Kitchen King,East of Kailash,77.25373641,28.55696162,"North Indian, Mughlai, Chinese",450,No,No,0.0,2
Laziz Chinese Fast Food,East of Kailash,77.24382263,28.55974625,Chinese,300,No,No,0.0,0
Munch Brunch Cafe,East of Kailash,77.24882092,28.55569767,"Street Food, Chinese",400,No,No,0.0,3
Piyu Fast Food,East of Kailash,77.24957529,28.55550213,Chinese,300,No,No,0.0,0
Punjabi Tandoor,East of Kailash,77.25070518,28.55600306,North Indian,300,No,Yes,0.0,3
Roll Corner,East of Kailash,77.2539276,28.561708199999998,Fast Food,200,No,No,0.0,2
Sher-e-Punjab,East of Kailash,0.0,0.0,"North Indian, Chinese, Fast Food",450,No,No,0.0,0
Test Restaruants for Medio,East of Kailash,34.0,35.0,"Chinese, Lucknowi",800,Yes,No,0.0,1
Uncle Sam,East of Kailash,0.0,0.0,North Indian,200,No,No,0.0,0
Vijay Store,East of Kailash,77.24595,28.55863333,"Fast Food, Street Food",200,No,No,0.0,1
Viya Cupcakery,East of Kailash,77.24464880000001,28.556257300000002,"Bakery, Desserts",500,No,No,0.0,0
Zaika Muradabadi,East of Kailash,77.250781,28.560295,Biryani,200,No,Yes,0.0,0
Asian Haus,East of Kailash,77.25135762,28.55602603,"Chinese, Thai, Asian, Malaysian, Vietnamese, Japanese",1500,No,Yes,4.1,686
Bake Club,East Patel Nagar,77.1735895,28.6448006,Bakery,250,No,No,3.2,44
Barichi,East Patel Nagar,77.1698272,28.6455402,"North Indian, Chinese, South Indian",1000,Yes,No,2.9,11
Barista,East Patel Nagar,77.1731083,28.645558899999997,Cafe,650,No,No,3.2,44
Baskin Robbins,East Patel Nagar,77.17470390000001,28.6441003,Ice Cream,300,No,Yes,2.6,11
Bite & More,East Patel Nagar,77.1743426,28.6428518,"Fast Food, North Indian",350,No,Yes,3.3,24
Blue Water Grille Express,East Patel Nagar,77.1741932,28.645702899999996,"North Indian, Mughlai, Chinese, Seafood",700,No,Yes,2.6,27
Brainfreezzers,East Patel Nagar,0.0,0.0,"North Indian, Chinese",500,No,No,3.0,5
Caboose X Cafe & Lounge,East Patel Nagar,77.1726854,28.6452593,"Fast Food, Cafe",700,No,No,3.2,39
Cafe Buddy's,East Patel Nagar,77.17249670000001,28.6440161,Fast Food,100,No,No,2.9,5
Cafe Coffee Day,East Patel Nagar,77.1696522,28.6449368,Cafe,450,No,No,2.9,38
Chinese Food,East Patel Nagar,77.1743474,28.6457707,Chinese,300,No,No,3.1,13
Chinese King,East Patel Nagar,77.17413515,28.64428733,"North Indian, Mughlai, Chinese",400,No,Yes,2.5,6
Cocoberry,East Patel Nagar,77.17276899999999,28.6452876,Desserts,300,No,Yes,3.3,28
Eggless Dukes,East Patel Nagar,77.1737102,28.6447002,"Bakery, Desserts",200,No,No,3.1,5
Empire The Meat Shop,East Patel Nagar,77.1736976,28.6461308,"Raw Meats, Fast Food",400,No,No,3.3,31
FOG Cafe and Lounge,East Patel Nagar,77.1716041,28.6445596,Cafe,500,No,No,3.0,4
Forty 3 East,East Patel Nagar,77.1728444,28.643926500000003,"North Indian, Mughlai, Continental",1100,Yes,No,3.2,38
Green Chick Chop,East Patel Nagar,77.1740625,28.645808399999996,"Raw Meats, North Indian, Fast Food",350,No,No,3.3,31
Gyan's,East Patel Nagar,77.17331970000001,28.646253499999997,North Indian,550,No,Yes,3.4,93
Indi-QUE,East Patel Nagar,77.1738098,28.645378700000002,"North Indian, Mughlai, Chinese",1400,Yes,No,3.3,46
Keventers,East Patel Nagar,77.1741502,28.6458375,Beverages,400,No,No,3.0,6
Pick Fresh Fish,East Patel Nagar,77.1741204,28.645747999999998,"Raw Meats, Fast Food",400,No,No,3.2,17
